{
  "type": "FeatureCollection",
  "crs": {
    "type": "name",
    "properties": { "name": "urn:ogc:def:crs:OGC:1.3:CRS84" }
  },
  "features": [
    {
      "type": "Feature",
      "properties": {
        "addr": "\u53f0\u5317\u5e02\u58eb\u6797\u5340\u6587\u660c\u8def179\u5df711\u865f2\u6a13"
      },
      "geometry": { "type": "Point", "coordinates": [121.5193, 25.0984] }
    },
    {
      "type": "Feature",
      "properties": {
        "addr": "\u53f0\u5317\u5e02\u58eb\u6797\u5340\u5929\u6bcd\u5317\u8def87\u5df722\u5f042\u865f"
      },
      "geometry": { "type": "Point", "coordinates": [121.5281, 25.1226] }
    },
    {
      "type": "Feature",
      "properties": {
        "addr": "\u53f0\u5317\u5e02\u58eb\u6797\u5340\u5929\u6bcd\u6771\u8def105\u5df71\u865f3\u865f"
      },
      "geometry": { "type": "Point", "coordinates": [121.5362, 25.1192] }
    },
    {
      "type": "Feature",
      "properties": {
        "addr": "\u53f0\u5317\u5e02\u58eb\u6797\u5340\u5ef6\u5e73\u5317\u8def\u4e94\u6bb5213\u5df717\u865f"
      },
      "geometry": { "type": "Point", "coordinates": [121.5087, 25.0835] }
    },
    {
      "type": "Feature",
      "properties": {
        "addr": "\u53f0\u5317\u5e02\u5927\u540c\u5340\u6566\u714c\u8def165\u865f2\u6a13"
      },
      "geometry": { "type": "Point", "coordinates": [121.5113, 25.0767] }
    },
    {
      "type": "Feature",
      "properties": {
        "addr": "\u53f0\u5317\u5e02\u5927\u5b89\u5340\u548c\u5e73\u6771\u8def\u4e8c\u6bb528\u865f"
      },
      "geometry": { "type": "Point", "coordinates": [121.5367, 25.0255] }
    },
    {
      "type": "Feature",
      "properties": {
        "addr": "\u53f0\u5317\u5e02\u4e2d\u5c71\u5340\u5409\u6797\u8def221\u865f"
      },
      "geometry": { "type": "Point", "coordinates": [121.5304, 25.0607] }
    },
    {
      "type": "Feature",
      "properties": {
        "addr": "\u53f0\u5317\u5e02\u4e2d\u5c71\u5340\u9577\u6625\u8def346\u865f"
      },
      "geometry": { "type": "Point", "coordinates": [121.5411, 25.0545] }
    },
    {
      "type": "Feature",
      "properties": {
        "addr": "\u53f0\u5317\u5e02\u4e2d\u5c71\u5340\u65b0\u751f\u5317\u8def\u4e8c\u6bb541\u5df721\u865f"
      },
      "geometry": { "type": "Point", "coordinates": [121.5292, 25.0554] }
    },
    {
      "type": "Feature",
      "properties": {
        "addr": "\u53f0\u5317\u5e02\u5167\u6e56\u5340\u65b0\u660e\u8def181\u5df73\u865f"
      },
      "geometry": { "type": "Point", "coordinates": [121.5887, 25.0583] }
    },
    {
      "type": "Feature",
      "properties": {
        "addr": "\u53f0\u5317\u5e02\u5167\u6e56\u5340\u6e2f\u5898\u8def113\u865f5\u6a13"
      },
      "geometry": { "type": "Point", "coordinates": [121.5765, 25.0786] }
    },
    {
      "type": "Feature",
      "properties": {
        "addr": "\u53f0\u5317\u5e02\u5167\u6e56\u5340\u74b0\u5c71\u8def\u4e8c\u6bb56\u865f"
      },
      "geometry": { "type": "Point", "coordinates": [121.5709, 25.0866] }
    },
    {
      "type": "Feature",
      "properties": {
        "addr": "\u53f0\u5317\u5e02\u5167\u6e56\u5340\u65b0\u660e\u8def451\u5df734\u5f0412\u865f"
      },
      "geometry": { "type": "Point", "coordinates": [121.5803, 25.054] }
    },
    {
      "type": "Feature",
      "properties": {
        "addr": "\u53f0\u5317\u5e02\u6587\u5c71\u5340\u6728\u65b0\u8def2\u6bb586\u865f"
      },
      "geometry": { "type": "Point", "coordinates": [121.5704, 24.9854] }
    },
    {
      "type": "Feature",
      "properties": {
        "addr": "\u53f0\u5317\u5e02\u5317\u6295\u5340\u4e2d\u592e\u5317\u8def\u56db\u6bb5442\u5df74\u5f042\u865f"
      },
      "geometry": { "type": "Point", "coordinates": [121.4702, 25.1294] }
    },
    {
      "type": "Feature",
      "properties": {
        "addr": "\u53f0\u5317\u5e02\u5317\u6295\u5340\u5149\u660e\u8def73\u5df711\u865f"
      },
      "geometry": { "type": "Point", "coordinates": [121.4998, 25.1331] }
    },
    {
      "type": "Feature",
      "properties": {
        "addr": "\u53f0\u5317\u5e02\u5317\u6295\u5340\u5149\u660e\u8def74\u865f"
      },
      "geometry": { "type": "Point", "coordinates": [121.5005, 25.1329] }
    },
    {
      "type": "Feature",
      "properties": {
        "addr": "\u53f0\u5317\u5e02\u5317\u6295\u5340\u6cc9\u6e90\u8def29\u4e4b1\u865f"
      },
      "geometry": { "type": "Point", "coordinates": [121.5063, 25.1403] }
    },
    {
      "type": "Feature",
      "properties": {
        "addr": "\u53f0\u5317\u5e02\u5317\u6295\u5340\u6e05\u6c5f\u8def156\u865f1\u6a13"
      },
      "geometry": { "type": "Point", "coordinates": [121.5018, 25.1284] }
    },
    {
      "type": "Feature",
      "properties": {
        "addr": "\u53f0\u5317\u5e02\u5317\u6295\u5340\u6e05\u6c5f\u8def207\u5df74\u865f"
      },
      "geometry": { "type": "Point", "coordinates": [121.5022, 25.1273] }
    },
    {
      "type": "Feature",
      "properties": {
        "addr": "\u53f0\u5317\u5e02\u5317\u6295\u5340\u81f4\u9060\u4e8c\u8def95\u5df734\u5f042\u865f"
      },
      "geometry": { "type": "Point", "coordinates": [121.5109, 25.1168] }
    },
    {
      "type": "Feature",
      "properties": {
        "addr": "\u53f0\u5317\u5e02\u5317\u6295\u5340\u5c0a\u8ce2\u8857218\u5df723\u5f048\u865f"
      },
      "geometry": { "type": "Point", "coordinates": [121.5086, 25.1161] }
    },
    {
      "type": "Feature",
      "properties": {
        "addr": "\u53f0\u5317\u5e02\u5317\u6295\u5340\u77e5\u884c\u8def62\u865f"
      },
      "geometry": { "type": "Point", "coordinates": [121.4678, 25.1182] }
    },
    {
      "type": "Feature",
      "properties": {
        "addr": "\u53f0\u5317\u5e02\u5317\u6295\u5340\u5d17\u5c71\u8def5\u5df716\u865f3\u6a13"
      },
      "geometry": { "type": "Point", "coordinates": [121.4861, 25.1402] }
    },
    {
      "type": "Feature",
      "properties": {
        "addr": "\u53f0\u5317\u5e02\u5317\u6295\u5340\u77e5\u884c\u8def293\u5df74\u865f"
      },
      "geometry": { "type": "Point", "coordinates": [121.4671, 25.122] }
    },
    {
      "type": "Feature",
      "properties": {
        "addr": "\u53f0\u5317\u5e02\u5317\u6295\u5340\u4e2d\u592e\u5317\u8def\u4e09\u6bb5124\u865f"
      },
      "geometry": { "type": "Point", "coordinates": [121.4833, 25.1375] }
    },
    {
      "type": "Feature",
      "properties": {
        "addr": "\u53f0\u5317\u5e02\u5317\u6295\u5340\u660e\u5fb7\u8def274\u865f"
      },
      "geometry": { "type": "Point", "coordinates": [121.5225, 25.1146] }
    },
    {
      "type": "Feature",
      "properties": {
        "addr": "\u53f0\u5317\u5e02\u5317\u6295\u5340\u77e5\u884c\u8def60\u5df71\u865f"
      },
      "geometry": { "type": "Point", "coordinates": [121.4678, 25.118] }
    },
    {
      "type": "Feature",
      "properties": {
        "addr": "\u53f0\u5317\u5e02\u677e\u5c71\u5340\u5357\u4eac\u6771\u8def\u56db\u6bb599\u865f4\u6a13"
      },
      "geometry": { "type": "Point", "coordinates": [121.5543, 25.0519] }
    },
    {
      "type": "Feature",
      "properties": {
        "addr": "\u53f0\u5317\u5e02\u4fe1\u7fa9\u5340\u4e2d\u5761\u5357\u8def120\u865f"
      },
      "geometry": { "type": "Point", "coordinates": [121.5849, 25.0407] }
    },
    {
      "type": "Feature",
      "properties": {
        "addr": "\u53f0\u5317\u5e02\u4fe1\u7fa9\u5340\u4fe1\u7fa9\u5340\u8def\u56db\u6bb5405\u865f"
      },
      "geometry": { "type": "Point", "coordinates": [121.5677, 25.0331] }
    },
    {
      "type": "Feature",
      "properties": {
        "addr": "\u53f0\u5317\u5e02\u4fe1\u7fa9\u5340\u5433\u8208\u8857507\u865f"
      },
      "geometry": { "type": "Point", "coordinates": [121.5698, 25.0233] }
    },
    {
      "type": "Feature",
      "properties": {
        "addr": "\u53f0\u5317\u5e02\u4fe1\u7fa9\u5340\u5433\u8208\u8857511\u865f"
      },
      "geometry": { "type": "Point", "coordinates": [121.5698, 25.0233] }
    },
    {
      "type": "Feature",
      "properties": {
        "addr": "\u53f0\u5317\u5e02\u4fe1\u7fa9\u5340\u677e\u9686\u8def200\u865f"
      },
      "geometry": { "type": "Point", "coordinates": [121.5726, 25.0469] }
    },
    {
      "type": "Feature",
      "properties": {
        "addr": "\u53f0\u5317\u5e02\u5357\u6e2f\u5340\u5fe0\u5b5d\u6771\u8def\u516d\u6bb5278\u5df723\u5f0436\u865f"
      },
      "geometry": { "type": "Point", "coordinates": [121.5908, 25.0488] }
    },
    {
      "type": "Feature",
      "properties": {
        "addr": "\u53f0\u5317\u5e02\u842c\u83ef\u5340\u9577\u6cf0\u885748\u865f"
      },
      "geometry": { "type": "Point", "coordinates": [121.5006, 25.0235] }
    },
    {
      "type": "Feature",
      "properties": {
        "addr": "\u53f0\u5317\u5e02\u58eb\u6797\u5340\u627f\u5fb7\u8def\u56db\u6bb5340\u865f"
      },
      "geometry": { "type": "Point", "coordinates": [121.5174, 25.0901] }
    },
    {
      "type": "Feature",
      "properties": {
        "addr": "\u53f0\u5317\u5e02\u58eb\u6797\u5340\u83ef\u9f61\u88571\u5df78\uff5e14\u865f"
      },
      "geometry": { "type": "Point", "coordinates": [121.519, 25.0824] }
    },
    {
      "type": "Feature",
      "properties": {
        "addr": "\u53f0\u5317\u5e02\u5927\u540c\u5340\u6c11\u6b0a\u897f\u8def104\u865f"
      },
      "geometry": { "type": "Point", "coordinates": [121.5174, 25.0627] }
    },
    {
      "type": "Feature",
      "properties": {
        "addr": "\u53f0\u5317\u5e02\u5927\u5b89\u5340\u5149\u5fa9\u5357\u8def626\u865f"
      },
      "geometry": { "type": "Point", "coordinates": [121.5573, 25.0318] }
    },
    {
      "type": "Feature",
      "properties": {
        "addr": "\u53f0\u5317\u5e02\u5927\u5b89\u5340\u4fe1\u7fa9\u5340\u8def\u56db\u6bb560\u865f"
      },
      "geometry": { "type": "Point", "coordinates": [121.5346, 25.0265] }
    },
    {
      "type": "Feature",
      "properties": {
        "addr": "\u53f0\u5317\u5e02\u4e2d\u6b63\u5340\u91d1\u5c71\u5357\u8def\u4e00\u6bb5125\u865f"
      },
      "geometry": { "type": "Point", "coordinates": [121.5278, 25.0358] }
    },
    {
      "type": "Feature",
      "properties": {
        "addr": "\u53f0\u5317\u5e02\u4e2d\u6b63\u5340\u5e2b\u5927\u8def186\u5df71\u865f"
      },
      "geometry": { "type": "Point", "coordinates": [121.5245, 25.0212] }
    },
    {
      "type": "Feature",
      "properties": {
        "addr": "\u53f0\u5317\u5e02\u4e2d\u6b63\u5340\u4e2d\u83ef\u8def\u4e8c\u6bb5309\u5df78\u865f"
      },
      "geometry": { "type": "Point", "coordinates": [121.5058, 25.0286] }
    },
    {
      "type": "Feature",
      "properties": {
        "addr": "\u53f0\u5317\u5e02\u6587\u5c71\u5340\u5fe0\u9806\u8857\u4e00\u6bb510\u5df72\u865f"
      },
      "geometry": { "type": "Point", "coordinates": [121.5582, 24.9838] }
    },
    {
      "type": "Feature",
      "properties": {
        "addr": "\u53f0\u5317\u5e02\u4fe1\u7fa9\u5340\u864e\u6797\u885759\u5df72\u865f"
      },
      "geometry": { "type": "Point", "coordinates": [121.5773, 25.0464] }
    },
    {
      "type": "Feature",
      "properties": {
        "addr": "\u53f0\u5317\u5e02\u842c\u83ef\u5340\u6210\u90fd\u8def110\u865f"
      },
      "geometry": { "type": "Point", "coordinates": [121.5018, 25.0436] }
    }
  ]
}
