{
  "type": "FeatureCollection",
  "crs": {
    "type": "name",
    "properties": { "name": "urn:ogc:def:crs:OGC:1.3:CRS84" }
  },
  "features": [
    {
      "type": "Feature",
      "properties": {
        "addr": "\u81fa\u5317\u5e02\u5317\u6295\u5340\u9577\u5b89\u91cc\u5149\u660e\u8def\u3001\u4e2d\u5c71\u8def\u4ea4\u53c9\u53e3(\u65b0\u5317\u6295\u6377\u904b\u7ad9\u5357\u5074)"
      },
      "geometry": { "type": "Point", "coordinates": [121.5023, 25.1342] }
    },
    {
      "type": "Feature",
      "properties": {
        "addr": "\u81fa\u5317\u5e02\u4e2d\u6b63\u5340\u9ece\u660e\u91cc\u51f1\u9054\u683c\u862d\u5927\u90533\u865f"
      },
      "geometry": { "type": "Point", "coordinates": [121.5156, 25.0403] }
    },
    {
      "type": "Feature",
      "properties": {
        "addr": "\u81fa\u5317\u5e02\u6587\u5c71\u5340\u6a1f\u8173\u91cc\u6728\u65b0\u8def\u4e09\u6bb5155\u5df77\u865f"
      },
      "geometry": { "type": "Point", "coordinates": [121.561, 24.9809] }
    },
    {
      "type": "Feature",
      "properties": {
        "addr": "\u81fa\u5317\u5e02\u677e\u5c71\u5340\u838a\u656c\u91cc\u6c11\u6b0a\u6771\u8def\u4e94\u6bb51\u865f"
      },
      "geometry": { "type": "Point", "coordinates": [121.5643, 25.0633] }
    },
    {
      "type": "Feature",
      "properties": {
        "addr": "\u81fa\u5317\u5e02\u5167\u6e56\u5340\u6e56\u8208\u91cc\u6c11\u6b0a\u6771\u8def\u516d\u6bb545\u865f"
      },
      "geometry": { "type": "Point", "coordinates": [121.5863, 25.0692] }
    },
    {
      "type": "Feature",
      "properties": {
        "addr": "\u81fa\u5317\u5e02\u58eb\u6797\u5340\u4e09\u7389\u91cc\u5929\u6bcd\u6771\u8def116\u865f"
      },
      "geometry": { "type": "Point", "coordinates": [121.5373, 25.118] }
    },
    {
      "type": "Feature",
      "properties": {
        "addr": "\u81fa\u5317\u5e02\u4fe1\u7fa9\u5340\u666f\u52e4\u91cc\u81fa\u5317\u5e02\u4fe1\u7fa9\u5340\u5433\u8208\u8857156\u5df76\u865fB1\u3001B2"
      },
      "geometry": { "type": "Point", "coordinates": [121.5612, 25.029] }
    },
    {
      "type": "Feature",
      "properties": {
        "addr": "\u81fa\u5317\u5e02\u4fe1\u7fa9\u5340\u666f\u806f\u91cc\u57fa\u9686\u8def2\u6bb599\u865f"
      },
      "geometry": { "type": "Point", "coordinates": [121.5578, 25.0297] }
    },
    {
      "type": "Feature",
      "properties": {
        "addr": "\u81fa\u5317\u5e02\u4e2d\u5c71\u5340\u91d1\u6cf0\u91cc\u6a02\u7fa4\u4e00\u8def\u65c1,\u57fa\u9686\u6cb3\u622a\u5f4e\u53d6\u76f4\u7bc4\u570d\u5167"
      },
      "geometry": { "type": "Point", "coordinates": [121.56, 25.0765] }
    },
    {
      "type": "Feature",
      "properties": {
        "addr": "\u81fa\u5317\u5e02\u58eb\u6797\u5340\u4e09\u7389\u91cc\u81fa\u5317\u5e02\u58eb\u6797\u5340\u58eb\u6771\u8def100\u865f"
      },
      "geometry": { "type": "Point", "coordinates": [121.5294, 25.112] }
    },
    {
      "type": "Feature",
      "properties": {
        "addr": "\u81fa\u5317\u5e02\u58eb\u6797\u5340\u862d\u96c5\u91cc\u4e2d\u5c71\u5317\u8def\u516d\u6bb5392\u865f"
      },
      "geometry": { "type": "Point", "coordinates": [121.5269, 25.1129] }
    },
    {
      "type": "Feature",
      "properties": {
        "addr": "\u81fa\u5317\u5e02\u58eb\u6797\u5340\u4fe1\u7fa9\u91cc\u81fa\u5317\u5e02\u58eb\u6797\u5340\u57fa\u6cb3\u8def101\u865f"
      },
      "geometry": { "type": "Point", "coordinates": [121.5242, 25.088] }
    },
    {
      "type": "Feature",
      "properties": {
        "addr": "\u81fa\u5317\u5e02\u58eb\u6797\u5340\u798f\u6797\u91cc\u798f\u6797\u8def60\u865f"
      },
      "geometry": { "type": "Point", "coordinates": [121.5302, 25.0946] }
    },
    {
      "type": "Feature",
      "properties": {
        "addr": "\u81fa\u5317\u5e02\u58eb\u6797\u5340\u5f8c\u6e2f\u91cc\u58eb\u5546\u8def150\u865f"
      },
      "geometry": { "type": "Point", "coordinates": [121.5163, 25.095] }
    },
    {
      "type": "Feature",
      "properties": {
        "addr": "\u81fa\u5317\u5e02\u58eb\u6797\u5340\u798f\u5fb7\u91cc\u5927\u6771\u8def165\u865f"
      },
      "geometry": { "type": "Point", "coordinates": [121.525, 25.0929] }
    },
    {
      "type": "Feature",
      "properties": {
        "addr": "\u81fa\u5317\u5e02\u58eb\u6797\u5340\u798f\u5fb7\u91cc\u4e2d\u6b63\u8def345\u865f"
      },
      "geometry": { "type": "Point", "coordinates": [121.5226, 25.0944] }
    },
    {
      "type": "Feature",
      "properties": {
        "addr": "\u81fa\u5317\u5e02\u5317\u6295\u5340\u5927\u5c6f\u91cc\u5fa9\u8208\u4e09\u8def312\u865f"
      },
      "geometry": { "type": "Point", "coordinates": [121.5043, 25.1547] }
    },
    {
      "type": "Feature",
      "properties": {
        "addr": "\u81fa\u5317\u5e02\u5927\u540c\u5340\u8001\u5e2b\u91cc\u74b0\u6cb3\u5317\u8def\u8207\u6566\u714c\u8def\u53e3\u4e09\u89d2\u7da0\u5730"
      },
      "geometry": { "type": "Point", "coordinates": [121.521, 25.0751] }
    },
    {
      "type": "Feature",
      "properties": {
        "addr": "\u81fa\u5317\u5e02\u4e2d\u5c71\u5340\u4e2d\u592e\u91cc\u9577\u6625\u8def167\u865f"
      },
      "geometry": { "type": "Point", "coordinates": [121.5351, 25.055] }
    },
    {
      "type": "Feature",
      "properties": {
        "addr": "\u81fa\u5317\u5e02\u5927\u540c\u5340\u84ec\u840a\u91cc\u5927\u9f8d\u885751\u865f"
      },
      "geometry": { "type": "Point", "coordinates": [121.5161, 25.0648] }
    },
    {
      "type": "Feature",
      "properties": {
        "addr": "\u81fa\u5317\u5e02\u5927\u5b89\u5340\u9f8d\u5716\u91cc\u81fa\u5317\u5e02\u5927\u5b89\u5340\u4fe1\u7fa9\u8def3\u6bb5180\u865fB1"
      },
      "geometry": { "type": "Point", "coordinates": [121.5424, 25.0332] }
    },
    {
      "type": "Feature",
      "properties": {
        "addr": "\u81fa\u5317\u5e02\u5927\u5b89\u5340\u9f8d\u5716\u91cc\u5fa9\u8208\u5357\u8def2\u6bb552\u865f"
      },
      "geometry": { "type": "Point", "coordinates": [121.5433, 25.032] }
    },
    {
      "type": "Feature",
      "properties": {
        "addr": "\u81fa\u5317\u5e02\u5927\u5b89\u5340\u82b3\u548c\u91cc\u81e5\u9f8d\u8857129\u865f"
      },
      "geometry": { "type": "Point", "coordinates": [121.5497, 25.0196] }
    },
    {
      "type": "Feature",
      "properties": {
        "addr": "\u81fa\u5317\u5e02\u5927\u5b89\u5340\u9f8d\u96f2\u91cc\u5927\u5b89\u8def\u4e8c\u6bb563\u865f"
      },
      "geometry": { "type": "Point", "coordinates": [121.5462, 25.0308] }
    },
    {
      "type": "Feature",
      "properties": {
        "addr": "\u81fa\u5317\u5e02\u5927\u5b89\u5340\u9f8d\u9580\u91cc\u65b0\u751f\u5357\u8def\u4ee5\u6771\u3001\u4fe1\u7fa9\u8def\u4e09\u6bb5\u4ee5\u5357"
      },
      "geometry": { "type": "Point", "coordinates": [121.5381, 25.0335] }
    },
    {
      "type": "Feature",
      "properties": {
        "addr": "\u81fa\u5317\u5e02\u4e2d\u5c71\u5340\u5927\u4f73\u91cc\u6ff1\u6c5f\u8857107\u865f"
      },
      "geometry": { "type": "Point", "coordinates": [121.5343, 25.0734] }
    },
    {
      "type": "Feature",
      "properties": {
        "addr": "\u81fa\u5317\u5e02\u4e2d\u5c71\u5340\u528d\u6f6d\u91cc\u5317\u5b89\u8def420\u865f"
      },
      "geometry": { "type": "Point", "coordinates": [121.5428, 25.0794] }
    },
    {
      "type": "Feature",
      "properties": {
        "addr": "\u81fa\u5317\u5e02\u4e2d\u5c71\u5340\u5927\u76f4\u91cc\u5927\u76f4\u88572\u865f"
      },
      "geometry": { "type": "Point", "coordinates": [121.5464, 25.0806] }
    },
    {
      "type": "Feature",
      "properties": {
        "addr": "\u81fa\u5317\u5e02\u842c\u83ef\u5340\u7da0\u5824\u91cc\u9577\u9806\u8857\uff12\u865f"
      },
      "geometry": { "type": "Point", "coordinates": [121.4912, 25.0308] }
    },
    {
      "type": "Feature",
      "properties": {
        "addr": "\u81fa\u5317\u5e02\u842c\u83ef\u5340\u7da0\u5824\u91cc\u824b\u823a\u5927\u9053389\u865f"
      },
      "geometry": { "type": "Point", "coordinates": [121.4938, 25.0312] }
    },
    {
      "type": "Feature",
      "properties": {
        "addr": "\u81fa\u5317\u5e02\u5167\u6e56\u5340\u79c0\u6e56\u91cc\u6210\u529f\u8def\u4e94\u6bb531\u865f\u65c1"
      },
      "geometry": { "type": "Point", "coordinates": [121.604, 25.0828] }
    },
    {
      "type": "Feature",
      "properties": {
        "addr": "\u81fa\u5317\u5e02\u5167\u6e56\u5340\u5927\u6e56\u91cc\u5927\u6e56\u5c71\u838a\u8857170\u865f"
      },
      "geometry": { "type": "Point", "coordinates": [121.6004, 25.0882] }
    },
    {
      "type": "Feature",
      "properties": {
        "addr": "\u81fa\u5317\u5e02\u5927\u540c\u5340\u9686\u548c\u91cc\u91cd\u6176\u5317\u8def\u4e09\u6bb52\u865f"
      },
      "geometry": { "type": "Point", "coordinates": [121.5134, 25.0643] }
    },
    {
      "type": "Feature",
      "properties": {
        "addr": "\u81fa\u5317\u5e02\u5927\u540c\u5340\u91cd\u6176\u91cc\u81fa\u5317\u5e02\u5927\u540c\u5340\u91cd\u6176\u5317\u8def\u4e09\u6bb5347\u865f"
      },
      "geometry": { "type": "Point", "coordinates": [121.5142, 25.0749] }
    },
    {
      "type": "Feature",
      "properties": {
        "addr": "\u81fa\u5317\u5e02\u5927\u540c\u5340\u4fdd\u5b89\u91cc\u54c8\u5bc6\u885747\u865f"
      },
      "geometry": { "type": "Point", "coordinates": [121.5167, 25.0734] }
    },
    {
      "type": "Feature",
      "properties": {
        "addr": "\u81fa\u5317\u5e02\u5317\u6295\u5340\u6e05\u6c5f\u3001\u6eab\u6cc9\u91cc\u516c\u9928\u8def13\u865f\u65c1"
      },
      "geometry": { "type": "Point", "coordinates": [121.5027, 25.1333] }
    },
    {
      "type": "Feature",
      "properties": {
        "addr": "\u81fa\u5317\u5e02\u4e2d\u5c71\u5340\u529b\u884c\u91cc\u9577\u5b89\u6771\u8def\u4e8c\u6bb5141\u865f"
      },
      "geometry": { "type": "Point", "coordinates": [121.5372, 25.0485] }
    },
    {
      "type": "Feature",
      "properties": {
        "addr": "\u81fa\u5317\u5e02\u4e2d\u5c71\u5340\u6c11\u5b89\u91cc\u81fa\u5317\u5e02\u9577\u5b89\u897f\u8def52-1\u865fB1"
      },
      "geometry": { "type": "Point", "coordinates": [121.5201, 25.0501] }
    },
    {
      "type": "Feature",
      "properties": {
        "addr": "\u81fa\u5317\u5e02\u4e2d\u5c71\u5340\u884c\u653f\u91cc\u677e\u6c5f\u8def367\u865f10\u6a13"
      },
      "geometry": { "type": "Point", "coordinates": [121.5335, 25.0644] }
    },
    {
      "type": "Feature",
      "properties": {
        "addr": "\u81fa\u5317\u5e02\u4e2d\u5c71\u5340\u6046\u5b89\u91cc\u6c11\u6b0a\u6771\u8def\u4e00\u6bb569\u865f"
      },
      "geometry": { "type": "Point", "coordinates": [121.5263, 25.0629] }
    },
    {
      "type": "Feature",
      "properties": {
        "addr": "\u81fa\u5317\u5e02\u677e\u5c71\u5340\u6c11\u6709\u91cc\u5fa9\u8208\u5317\u8def361\u5df77\u865f"
      },
      "geometry": { "type": "Point", "coordinates": [121.5455, 25.0606] }
    },
    {
      "type": "Feature",
      "properties": {
        "addr": "\u81fa\u5317\u5e02\u4e2d\u6b63\u5340\u9f8d\u798f\u91cc\u81fa\u5317\u5e02\u4e2d\u6b63\u5340\u7f85\u65af\u798f\u8def1\u6bb58\u4e4b1\u865fB1"
      },
      "geometry": { "type": "Point", "coordinates": [121.5182, 25.0325] }
    },
    {
      "type": "Feature",
      "properties": {
        "addr": "\u81fa\u5317\u5e02\u5317\u6295\u5340\u5efa\u6c11\u91cc\u6587\u6797\u5317\u8def77\u865f"
      },
      "geometry": { "type": "Point", "coordinates": [121.5176, 25.1052] }
    },
    {
      "type": "Feature",
      "properties": {
        "addr": "\u81fa\u5317\u5e02\u677e\u5c71\u5340\u4e2d\u6b63\u91cc\u81fa\u5317\u5e02\u677e\u5c71\u5340\u9577\u5b89\u6771\u8def2\u6bb5229\u865f11\u6a13"
      },
      "geometry": { "type": "Point", "coordinates": [121.5459, 25.0484] }
    },
    {
      "type": "Feature",
      "properties": {
        "addr": "\u81fa\u5317\u5e02\u4e2d\u5c71\u5340\u529b\u884c\u91cc\u9f8d\u6c5f\u8def62\u865f"
      },
      "geometry": { "type": "Point", "coordinates": [121.5403, 25.0506] }
    },
    {
      "type": "Feature",
      "properties": {
        "addr": "\u81fa\u5317\u5e02\u4e2d\u6b63\u5340\u65b0\u71df\u91cc\u611b\u570b\u6771\u8def158\u865f"
      },
      "geometry": { "type": "Point", "coordinates": [121.5222, 25.0323] }
    },
    {
      "type": "Feature",
      "properties": {
        "addr": "\u81fa\u5317\u5e02\u5357\u6e2f\u5340\u4e2d\u7814\u91cc\u81fa\u5317\u5e02\u5357\u6e2f\u5340\u7814\u7a76\u9662\u8def\u4e8c\u6bb570\u5df712\u865f"
      },
      "geometry": { "type": "Point", "coordinates": [121.6145, 25.0455] }
    },
    {
      "type": "Feature",
      "properties": {
        "addr": "\u81fa\u5317\u5e02\u677e\u5c71\u5340\u5409\u7965\u91cc\u516b\u5fb7\u8def\u56db\u6bb5101\u865f"
      },
      "geometry": { "type": "Point", "coordinates": [121.5615, 25.0487] }
    },
    {
      "type": "Feature",
      "properties": {
        "addr": "\u81fa\u5317\u5e02\u4e2d\u5c71\u5340\u4e0b\u57e4\u91cc\u4e94\u5e38\u885716\u865f"
      },
      "geometry": { "type": "Point", "coordinates": [121.5422, 25.0642] }
    },
    {
      "type": "Feature",
      "properties": {
        "addr": "\u81fa\u5317\u5e02\u4e2d\u5c71\u5340\u4e0b\u57e4\u91cc\u5fa9\u8208\u5317\u8def430\u5df71\u865f"
      },
      "geometry": { "type": "Point", "coordinates": [121.5431, 25.0635] }
    },
    {
      "type": "Feature",
      "properties": {
        "addr": "\u81fa\u5317\u5e02\u5927\u5b89\u5340\u6566\u5b89\u91cc\u5b89\u548c\u8def\u4e00\u6bb560\u865f"
      },
      "geometry": { "type": "Point", "coordinates": [121.5523, 25.0358] }
    },
    {
      "type": "Feature",
      "properties": {
        "addr": "\u81fa\u5317\u5e02\u5927\u5b89\u5340\u6566\u5b89\u91cc\u4ec1\u611b\u8def\u56db\u6bb5130\u865f"
      },
      "geometry": { "type": "Point", "coordinates": [121.5507, 25.0375] }
    },
    {
      "type": "Feature",
      "properties": {
        "addr": "\u81fa\u5317\u5e02\u677e\u5c71\u5340\u4ecb\u58fd\u91cc\u5ef6\u58fd\u8857401\u865f"
      },
      "geometry": { "type": "Point", "coordinates": [121.5565, 25.0564] }
    },
    {
      "type": "Feature",
      "properties": {
        "addr": "\u81fa\u5317\u5e02\u5167\u6e56\u5340\u6e2f\u5898\u91cc\u5167\u6e56\u8def\u4e00\u6bb5520\u865f"
      },
      "geometry": { "type": "Point", "coordinates": [121.5754, 25.0797] }
    },
    {
      "type": "Feature",
      "properties": {
        "addr": "\u81fa\u5317\u5e02\u5167\u6e56\u5340\u7d2b\u967d\u91cc\u6587\u5fb7\u8def218\u865f"
      },
      "geometry": { "type": "Point", "coordinates": [121.5865, 25.0784] }
    },
    {
      "type": "Feature",
      "properties": {
        "addr": "\u81fa\u5317\u5e02\u5167\u6e56\u5340\u6e56\u8208\u91cc\u6c11\u6b0a\u6771\u8def6\u6bb599\u865f8\u6a13"
      },
      "geometry": { "type": "Point", "coordinates": [121.589, 25.0693] }
    },
    {
      "type": "Feature",
      "properties": {
        "addr": "\u81fa\u5317\u5e02\u5167\u6e56\u5340\u6e2f\u5bcc\u91cc\u5167\u6e56\u8def\u4e8c\u6bb541\u865f"
      },
      "geometry": { "type": "Point", "coordinates": [121.5802, 25.0791] }
    },
    {
      "type": "Feature",
      "properties": {
        "addr": "\u81fa\u5317\u5e02\u5167\u6e56\u5340\u7d2b\u967d\u91cc\u967d\u5149\u88571\u865f"
      },
      "geometry": { "type": "Point", "coordinates": [121.5887, 25.0771] }
    },
    {
      "type": "Feature",
      "properties": {
        "addr": "\u81fa\u5317\u5e02\u5927\u5b89\u5340\u5b78\u5e9c\u91cc\u57fa\u9686\u8def\u56db\u6bb541\u5df768\u5f042\u865f"
      },
      "geometry": { "type": "Point", "coordinates": [121.5429, 25.0124] }
    },
    {
      "type": "Feature",
      "properties": {
        "addr": "\u81fa\u5317\u5e02\u58eb\u6797\u5340\u5929\u7389\u91cc\u5929\u7389\u885712\u865f"
      },
      "geometry": { "type": "Point", "coordinates": [121.5275, 25.1197] }
    },
    {
      "type": "Feature",
      "properties": {
        "addr": "\u81fa\u5317\u5e02\u58eb\u6797\u5340\u4e09\u7389\u91cc\u5929\u6bcd\u6771\u8def120\u865f"
      },
      "geometry": { "type": "Point", "coordinates": [121.5382, 25.1179] }
    },
    {
      "type": "Feature",
      "properties": {
        "addr": "\u81fa\u5317\u5e02\u58eb\u6797\u5340\u4e09\u7389\u91cc\u5fe0\u8aa0\u8def\u4e8c\u6bb577\u865f"
      },
      "geometry": { "type": "Point", "coordinates": [121.5317, 25.1128] }
    },
    {
      "type": "Feature",
      "properties": {
        "addr": "\u81fa\u5317\u5e02\u58eb\u6797\u5340\u5929\u548c\u91cc\u5929\u6bcd\u6771\u8def69\u5df7\u524d"
      },
      "geometry": { "type": "Point", "coordinates": [121.5345, 25.1183] }
    },
    {
      "type": "Feature",
      "properties": {
        "addr": "\u81fa\u5317\u5e02\u5927\u540c\u5340\u5357\u82b3\u91cc\u5ef6\u5e73\u5317\u8def\u4e8c\u6bb5239\u865f"
      },
      "geometry": { "type": "Point", "coordinates": [121.5115, 25.0614] }
    },
    {
      "type": "Feature",
      "properties": {
        "addr": "\u81fa\u5317\u5e02\u5317\u6295\u5340\u6587\u5316\u91cc\u81fa\u5317\u5e02\u5317\u6295\u5340\u6587\u5316\u4e09\u8def3\u865f4\u30015\u6a13"
      },
      "geometry": { "type": "Point", "coordinates": [121.4979, 25.138] }
    },
    {
      "type": "Feature",
      "properties": {
        "addr": "\u81fa\u5317\u5e02\u5317\u6295\u5340\u6587\u5316\u91cc\u6587\u5316\u4e09\u8def1\u865f"
      },
      "geometry": { "type": "Point", "coordinates": [121.4967, 25.1371] }
    },
    {
      "type": "Feature",
      "properties": {
        "addr": "\u81fa\u5317\u5e02\u58eb\u6797\u5340\u5fb7\u83ef\u91cc\u6587\u6797\u8def615\u5df720\u865f"
      },
      "geometry": { "type": "Point", "coordinates": [121.5209, 25.0996] }
    },
    {
      "type": "Feature",
      "properties": {
        "addr": "\u81fa\u5317\u5e02\u5317\u6295\u5340\u5efa\u6c11\u91cc\u6587\u6797\u5317\u8def155\u865f"
      },
      "geometry": { "type": "Point", "coordinates": [121.5142, 25.1059] }
    },
    {
      "type": "Feature",
      "properties": {
        "addr": "\u81fa\u5317\u5e02\u5167\u6e56\u5340\u897f\u5eb7\u91cc\u6587\u6e56\u885715\u865f"
      },
      "geometry": { "type": "Point", "coordinates": [121.5601, 25.0858] }
    },
    {
      "type": "Feature",
      "properties": {
        "addr": "\u81fa\u5317\u5e02\u5927\u540c\u5340\u661f\u660e\u91cc\u592a\u539f\u8def151\u865f"
      },
      "geometry": { "type": "Point", "coordinates": [121.5165, 25.0544] }
    },
    {
      "type": "Feature",
      "properties": {
        "addr": "\u81fa\u5317\u5e02\u6587\u5c71\u5340\u6728\u65b0\u91cc\u81fa\u5317\u5e02\u6587\u5c71\u5340\u4fdd\u5100\u8def13\u5df73\u865f"
      },
      "geometry": { "type": "Point", "coordinates": [121.5692, 24.9885] }
    },
    {
      "type": "Feature",
      "properties": {
        "addr": "\u81fa\u5317\u5e02\u6587\u5c71\u5340\u535a\u5609\u91cc\u6728\u67f5\u8def\u56db\u6bb577\u865f"
      },
      "geometry": { "type": "Point", "coordinates": [121.5719, 24.9959] }
    },
    {
      "type": "Feature",
      "properties": {
        "addr": "\u81fa\u5317\u5e02\u6587\u5c71\u5340\u6728\u67f5\u91cc\u6728\u67f5\u8def\u4e09\u6bb5191\u865f"
      },
      "geometry": { "type": "Point", "coordinates": [121.5702, 24.9903] }
    },
    {
      "type": "Feature",
      "properties": {
        "addr": "\u81fa\u5317\u5e02\u6587\u5c71\u5340\u6728\u67f5\u91cc\u6728\u67f5\u8def\u4e09\u6bb5102\u5df712\u865f"
      },
      "geometry": { "type": "Point", "coordinates": [121.5676, 24.9874] }
    },
    {
      "type": "Feature",
      "properties": {
        "addr": "\u81fa\u5317\u5e02\u6587\u5c71\u5340\u6a1f\u6587\u91cc\u81fa\u5317\u5e02\u6587\u5c71\u5340\u6728\u65b0\u8def\u4e09\u6bb5310\u5df74\u865f"
      },
      "geometry": { "type": "Point", "coordinates": [121.5572, 24.9815] }
    },
    {
      "type": "Feature",
      "properties": {
        "addr": "\u81fa\u5317\u5e02\u6587\u5c71\u5340\u6a1f\u6587\u91cc\u81fa\u5317\u5e02\u6587\u5c71\u5340\u6728\u65b0\u8def\u4e09\u6bb5310\u5df74\u865f2\u6a13\u30012\u6a13\u4e4b1"
      },
      "geometry": { "type": "Point", "coordinates": [121.5572, 24.9815] }
    },
    {
      "type": "Feature",
      "properties": {
        "addr": "\u81fa\u5317\u5e02\u4e2d\u6b63\u5340\u5efa\u570b\u91cc\u91cd\u6176\u5357\u8def\u4e00\u6bb5165\u865f"
      },
      "geometry": { "type": "Point", "coordinates": [121.513, 25.0386] }
    },
    {
      "type": "Feature",
      "properties": {
        "addr": "\u81fa\u5317\u5e02\u4e2d\u6b63\u5340\u9ece\u660e\u91cc\u516c\u5712\u8def29\u865f"
      },
      "geometry": { "type": "Point", "coordinates": [121.5153, 25.0363] }
    },
    {
      "type": "Feature",
      "properties": {
        "addr": "\u81fa\u5317\u5e02\u4e2d\u5c71\u5340\u528d\u6f6d\u91cc\u660e\u6c34\u8def325\u865f"
      },
      "geometry": { "type": "Point", "coordinates": [121.5416, 25.0778] }
    },
    {
      "type": "Feature",
      "properties": {
        "addr": "\u81fa\u5317\u5e02\u5317\u6295\u5340\u4e2d\u5fc3\u3001\u6797\u6cc9\u3001\u9577\u5b89\u3001\u6eab\u6cc9\u91cc\u4e2d\u5c71\u8def\u3001\u5149\u660e\u8def\u6240\u570d\u7bc4\u570d"
      },
      "geometry": { "type": "Point", "coordinates": [121.5086, 25.1373] }
    },
    {
      "type": "Feature",
      "properties": {
        "addr": "\u81fa\u5317\u5e02\u5317\u6295\u5340\u4e2d\u5fc3\u3001\u6797\u6cc9\u91cc\u4e2d\u5c71\u8def5\u865f\u9644\u8fd1"
      },
      "geometry": { "type": "Point", "coordinates": [121.5081, 25.1371] }
    },
    {
      "type": "Feature",
      "properties": {
        "addr": "\u81fa\u5317\u5e02\u5317\u6295\u5340\u6e05\u6c5f\u91cc\u65b0\u5e02\u885730\u865f6\u6a13"
      },
      "geometry": { "type": "Point", "coordinates": [121.5024, 25.1325] }
    },
    {
      "type": "Feature",
      "properties": {
        "addr": "\u81fa\u5317\u5e02\u5317\u6295\u5340\u9577\u5b89\u91cc\u4e2d\u592e\u5317\u8def\u4e00\u6bb573\u865f"
      },
      "geometry": { "type": "Point", "coordinates": [121.5003, 25.1342] }
    },
    {
      "type": "Feature",
      "properties": {
        "addr": "\u81fa\u5317\u5e02\u5317\u6295\u5340\u6eab\u6cc9\u91cc\u6eab\u6cc9\u8def62\u865f"
      },
      "geometry": { "type": "Point", "coordinates": [121.5042, 25.1345] }
    },
    {
      "type": "Feature",
      "properties": {
        "addr": "\u81fa\u5317\u5e02\u6587\u5c71\u5340\u6307\u5357\u91cc\u6307\u5357\u8def\u4e09\u6bb52\u5df714\u865f"
      },
      "geometry": { "type": "Point", "coordinates": [121.5783, 24.9849] }
    },
    {
      "type": "Feature",
      "properties": {
        "addr": "\u81fa\u5317\u5e02\u4e2d\u6b63\u5340\u9802\u6771\u91cc\u81fa\u5317\u5e02\u4e2d\u6b63\u5340\u7f85\u65af\u798f\u8def2\u6bb5164\u4e4b1\u865fB1"
      },
      "geometry": { "type": "Point", "coordinates": [121.5232, 25.0256] }
    },
    {
      "type": "Feature",
      "properties": {
        "addr": "\u81fa\u5317\u5e02\u5927\u5b89\u5340\u53e4\u98a8\u91cc\u7f85\u65af\u798f\u8def\u4e09\u6bb5201\u865f"
      },
      "geometry": { "type": "Point", "coordinates": [121.5286, 25.0207] }
    },
    {
      "type": "Feature",
      "properties": {
        "addr": "\u81fa\u5317\u5e02\u4e2d\u6b63\u5340\u6c38\u529f\u91cc\u4e2d\u83ef\u8def\u4e8c\u6bb5465\u865f"
      },
      "geometry": { "type": "Point", "coordinates": [121.5107, 25.0247] }
    },
    {
      "type": "Feature",
      "properties": {
        "addr": "\u81fa\u5317\u5e02\u4e2d\u6b63\u5340\u9ece\u660e\u91cc\u81fa\u5317\u5e02\u4e2d\u6b63\u5340\u516c\u5712\u8def52\u865fB1"
      },
      "geometry": { "type": "Point", "coordinates": [121.5158, 25.0408] }
    },
    {
      "type": "Feature",
      "properties": {
        "addr": "\u81fa\u5317\u5e02\u842c\u83ef\u5340\u83ef\u6c5f\u91cc\u81fa\u5317\u5e02\u842c\u83ef\u5340\u74b0\u6cb3\u5357\u8def\u4e8c\u6bb5338\u865f"
      },
      "geometry": { "type": "Point", "coordinates": [121.4899, 25.0306] }
    },
    {
      "type": "Feature",
      "properties": {
        "addr": "\u81fa\u5317\u5e02\u5167\u6e56\u5340\u6e56\u5143\u91cc\u81fa\u5317\u5e02\u5167\u6e56\u5340\u65b0\u6e56\u4e09\u8def28\u865f"
      },
      "geometry": { "type": "Point", "coordinates": [121.5742, 25.0628] }
    },
    {
      "type": "Feature",
      "properties": {
        "addr": "\u81fa\u5317\u5e02\u4e2d\u5c71\u5340\u884c\u5b5d\u91cc\u81fa\u5317\u5e02\u4e2d\u5c71\u5340\u6c11\u65cf\u6771\u8def410\u5df72\u5f0418\u300120\u865f"
      },
      "geometry": { "type": "Point", "coordinates": [121.5373, 25.0668] }
    },
    {
      "type": "Feature",
      "properties": {
        "addr": "\u81fa\u5317\u5e02\u4fe1\u7fa9\u5340\u8208\u96c5\u91cc\u81fa\u5317\u5e02\u4fe1\u7fa9\u5340\u5fe0\u5b5d\u6771\u8def5\u6bb56\u865f"
      },
      "geometry": { "type": "Point", "coordinates": [121.5652, 25.0409] }
    },
    {
      "type": "Feature",
      "properties": {
        "addr": "\u81fa\u5317\u5e02\u58eb\u6797\u5340\u5e73\u7b49\u91cc\u5e73\u83c1\u8857101\u865f"
      },
      "geometry": { "type": "Point", "coordinates": [121.5763, 25.1291] }
    },
    {
      "type": "Feature",
      "properties": {
        "addr": "\u81fa\u5317\u5e02\u4e2d\u6b63\u5340\u5efa\u570b\u91cc\u516c\u5712\u8def21\u865f"
      },
      "geometry": { "type": "Point", "coordinates": [121.5153, 25.0375] }
    },
    {
      "type": "Feature",
      "properties": {
        "addr": "\u81fa\u5317\u5e02\u677e\u5c71\u5340\u4ecb\u58fd\u91cc\u6c11\u751f\u6771\u8def\u4e94\u6bb536\u5df74\u5f04\u82078\u5f04\u9593."
      },
      "geometry": { "type": "Point", "coordinates": [121.5595, 25.0578] }
    },
    {
      "type": "Feature",
      "properties": {
        "addr": "\u81fa\u5317\u5e02\u677e\u5c71\u5340\u4e2d\u83ef\u91cc\u6566\u5316\u5317\u8def199\u5df718\u865f"
      },
      "geometry": { "type": "Point", "coordinates": [121.552, 25.0565] }
    },
    {
      "type": "Feature",
      "properties": {
        "addr": "\u81fa\u5317\u5e02\u677e\u5c71\u5340\u65b0\u6771\u91cc\u65b0\u6771\u885730\u5df71\u865f"
      },
      "geometry": { "type": "Point", "coordinates": [121.5673, 25.0598] }
    },
    {
      "type": "Feature",
      "properties": {
        "addr": "\u81fa\u5317\u5e02\u677e\u5c71\u5340\u6c11\u6709\u91cc\u81fa\u5317\u5e02\u677e\u5c71\u5340\u6c11\u6b0a\u6771\u8def\u4e09\u6bb5140\u5df715\u865f4\u30015\u6a13"
      },
      "geometry": { "type": "Point", "coordinates": [121.5467, 25.0605] }
    },
    {
      "type": "Feature",
      "properties": {
        "addr": "\u81fa\u5317\u5e02\u677e\u5c71\u5340\u7cbe\u5fe0\u91cc\u6c11\u751f\u6771\u8def\u56db\u6bb597\u5df77\u865f"
      },
      "geometry": { "type": "Point", "coordinates": [121.5519, 25.0589] }
    },
    {
      "type": "Feature",
      "properties": {
        "addr": "\u81fa\u5317\u5e02\u5927\u5b89\u5340\u5b78\u5e9c\u91cc\u7f85\u65af\u798f\u8def\u56db\u6bb5113\u5df713\u865f"
      },
      "geometry": { "type": "Point", "coordinates": [121.5388, 25.0112] }
    },
    {
      "type": "Feature",
      "properties": {
        "addr": "\u81fa\u5317\u5e02\u677e\u5c71\u5340\u6771\u69ae\u91cc\u6c11\u6b0a\u6771\u8def\u56db\u6bb5\u3001\u6c11\u6b0a\u570b\u5c0f\u9644\u8fd1"
      },
      "geometry": { "type": "Point", "coordinates": [121.5569, 25.062] }
    },
    {
      "type": "Feature",
      "properties": {
        "addr": "\u81fa\u5317\u5e02\u677e\u5c71\u5340\u4e09\u6c11\u91cc\u6c11\u6b0a\u6771\u8def\u56db\u6bb5200\u865f"
      },
      "geometry": { "type": "Point", "coordinates": [121.5623, 25.0625] }
    },
    {
      "type": "Feature",
      "properties": {
        "addr": "\u81fa\u5317\u5e02\u5927\u540c\u5340\u9686\u548c\u91cc\u91cd\u6176\u5317\u8def\u4e09\u6bb51\u865f"
      },
      "geometry": { "type": "Point", "coordinates": [121.5139, 25.0637] }
    },
    {
      "type": "Feature",
      "properties": {
        "addr": "\u81fa\u5317\u5e02\u4fe1\u7fa9\u5340\u56db\u80b2\u91cc\u677e\u9686\u8def161\u865f"
      },
      "geometry": { "type": "Point", "coordinates": [121.5741, 25.0483] }
    },
    {
      "type": "Feature",
      "properties": {
        "addr": "\u81fa\u5317\u5e02\u4e2d\u5c71\u5340\u6c38\u5b89\u91cc\u660e\u6c34\u8def397\u5df719\u5f041\u865f"
      },
      "geometry": { "type": "Point", "coordinates": [121.5494, 25.0787] }
    },
    {
      "type": "Feature",
      "properties": {
        "addr": "\u81fa\u5317\u5e02\u6587\u5c71\u5340\u83ef\u8208\u91cc\u81fa\u5317\u5e02\u6587\u5c71\u5340\u6728\u67f5\u8def\u4e00\u6bb5177\u865f3\u6a13\u4e4b1"
      },
      "geometry": { "type": "Point", "coordinates": [121.551, 24.9878] }
    },
    {
      "type": "Feature",
      "properties": {
        "addr": "\u81fa\u5317\u5e02\u6587\u5c71\u5340\u83ef\u8208\u91cc\u8a66\u9662\u8def2\u865f\u6728\u67f5\u8def\u4e00\u6bb5311\u5df71\u865f"
      },
      "geometry": { "type": "Point", "coordinates": [121.5501, 24.9876] }
    },
    {
      "type": "Feature",
      "properties": {
        "addr": "\u81fa\u5317\u5e02\u4fe1\u7fa9\u5340\u677e\u9686\u91cc\u677e\u5c71\u8def654\u865f"
      },
      "geometry": { "type": "Point", "coordinates": [121.5813, 25.0341] }
    },
    {
      "type": "Feature",
      "properties": {
        "addr": "\u81fa\u5317\u5e02\u5927\u540c\u5340\u5357\u82b3\u91cc\u5ef6\u5e73\u5317\u8def\u4e8c\u6bb5266\u865f"
      },
      "geometry": { "type": "Point", "coordinates": [121.5111, 25.0617] }
    },
    {
      "type": "Feature",
      "properties": {
        "addr": "\u81fa\u5317\u5e02\u5357\u6e2f\u5340\u9d3b\u798f\u91cc\u4e2d\u5761\u5357\u8def55\u865f."
      },
      "geometry": { "type": "Point", "coordinates": [121.5858, 25.0419] }
    },
    {
      "type": "Feature",
      "properties": {
        "addr": "\u81fa\u5317\u5e02\u5357\u6e2f\u5340\u897f\u65b0\u91cc\u5411\u967d\u8def31\u865f"
      },
      "geometry": { "type": "Point", "coordinates": [121.5948, 25.0536] }
    },
    {
      "type": "Feature",
      "properties": {
        "addr": "\u81fa\u5317\u5e02\u5927\u540c\u5340\u7389\u6cc9\u91cc\u897f\u5bdc\u5317\u8def28\u865f"
      },
      "geometry": { "type": "Point", "coordinates": [121.5154, 25.0661] }
    },
    {
      "type": "Feature",
      "properties": {
        "addr": "\u81fa\u5317\u5e02\u5317\u6295\u5340\u5409\u5229\u3001\u5c0a\u8ce2\u91cc\u81fa\u5317\u5e02\u5317\u6295\u5340\u77f3\u724c\u8def1\u6bb539\u5df7\u5167"
      },
      "geometry": { "type": "Point", "coordinates": [121.5104, 25.1132] }
    },
    {
      "type": "Feature",
      "properties": {
        "addr": "\u81fa\u5317\u5e02\u5317\u6295\u5340\u5409\u5229\u91cc\u81f4\u9060\u4e8c\u8def80\u865f"
      },
      "geometry": { "type": "Point", "coordinates": [121.5117, 25.1157] }
    },
    {
      "type": "Feature",
      "properties": {
        "addr": "\u81fa\u5317\u5e02\u5317\u6295\u5340\u5409\u5229\u91cc\u77f3\u724c\u8def\u4e00\u6bb5139\u865f"
      },
      "geometry": { "type": "Point", "coordinates": [121.5142, 25.115] }
    },
    {
      "type": "Feature",
      "properties": {
        "addr": "\u81fa\u5317\u5e02\u5317\u6295\u5340\u7acb\u8fb2\u91cc\u627f\u5fb7\u8def7\u6bb5\u3001\u7acb\u8fb2\u88571\u6bb522\u5df72\u5f04\u65c1"
      },
      "geometry": { "type": "Point", "coordinates": [121.5032, 25.119] }
    },
    {
      "type": "Feature",
      "properties": {
        "addr": "\u81fa\u5317\u5e02\u5317\u6295\u5340\u7acb\u8fb2\u91cc\u7acb\u8fb2\u8857\u4e00\u6bb5250\u865f"
      },
      "geometry": { "type": "Point", "coordinates": [121.5053, 25.1195] }
    },
    {
      "type": "Feature",
      "properties": {
        "addr": "\u81fa\u5317\u5e02\u4fe1\u7fa9\u5340\u8208\u9686\u91cc\u5149\u5fa9\u5357\u8def271\u865f"
      },
      "geometry": { "type": "Point", "coordinates": [121.5578, 25.0401] }
    },
    {
      "type": "Feature",
      "properties": {
        "addr": "\u81fa\u5317\u5e02\u4e2d\u6b63\u5340\u6885\u82b1\u91cc\u81fa\u5317\u5e02\u4e2d\u6b63\u5340\u5e02\u6c11\u5927\u9053\u4e09\u6bb58\u865f"
      },
      "geometry": { "type": "Point", "coordinates": [121.5321, 25.0452] }
    },
    {
      "type": "Feature",
      "properties": {
        "addr": "\u81fa\u5317\u5e02\u4fe1\u7fa9\u5340\u8208\u96c5\u91cc\u81fa\u5317\u5e02\u4fe1\u7fa9\u5340\u677e\u9686\u8def36\u865f\u5730\u4e0b\u4e8c\u6a13"
      },
      "geometry": { "type": "Point", "coordinates": [121.5676, 25.0435] }
    },
    {
      "type": "Feature",
      "properties": {
        "addr": "\u81fa\u5317\u5e02\u4e2d\u5c71\u5340\u4e2d\u539f\u91cc\u9577\u6625\u8def116\u865f"
      },
      "geometry": { "type": "Point", "coordinates": [121.5296, 25.0545] }
    },
    {
      "type": "Feature",
      "properties": {
        "addr": "\u81fa\u5317\u5e02\u5927\u5b89\u5340\u9f8d\u9663\u91cc\u81fa\u5317\u5e02\u5927\u5b89\u5340\u745e\u5b89\u885775\u865f"
      },
      "geometry": { "type": "Point", "coordinates": [121.5409, 25.0281] }
    },
    {
      "type": "Feature",
      "properties": {
        "addr": "\u81fa\u5317\u5e02\u4e2d\u6b63\u5340\u5e78\u798f\u91cc\u6fdf\u5357\u8def\u4e00\u6bb571\u865f"
      },
      "geometry": { "type": "Point", "coordinates": [121.5238, 25.0424] }
    },
    {
      "type": "Feature",
      "properties": {
        "addr": "\u81fa\u5317\u5e02\u5927\u540c\u5340\u6c11\u6b0a\u91cc\u627f\u5fb7\u8def\u4e8c\u6bb5235\u865f"
      },
      "geometry": { "type": "Point", "coordinates": [121.5185, 25.0613] }
    },
    {
      "type": "Feature",
      "properties": {
        "addr": "\u81fa\u5317\u5e02\u5357\u6e2f\u5340\u806f\u6210\u91cc\u6771\u65b0\u885765\u865f"
      },
      "geometry": { "type": "Point", "coordinates": [121.5869, 25.0469] }
    },
    {
      "type": "Feature",
      "properties": {
        "addr": "\u81fa\u5317\u5e02\u5357\u6e2f\u5340\u6210\u798f\u91cc\u6771\u65b0\u8857108\u5df723\u865f"
      },
      "geometry": { "type": "Point", "coordinates": [121.5877, 25.045] }
    },
    {
      "type": "Feature",
      "properties": {
        "addr": "\u81fa\u5317\u5e02\u58eb\u6797\u5340\u7fa9\u4fe1\u91cc\u627f\u5fb7\u8def\u56db\u6bb5177\u865f"
      },
      "geometry": { "type": "Point", "coordinates": [121.5231, 25.087] }
    },
    {
      "type": "Feature",
      "properties": {
        "addr": "\u81fa\u5317\u5e02\u58eb\u6797\u5340\u798f\u4e2d\u91cc\u798f\u6e2f\u8857205\u865f"
      },
      "geometry": { "type": "Point", "coordinates": [121.5179, 25.0861] }
    },
    {
      "type": "Feature",
      "properties": {
        "addr": "\u81fa\u5317\u5e02\u842c\u83ef\u5340\u798f\u97f3\u91cc\u6842\u6797\u8def64\u865f"
      },
      "geometry": { "type": "Point", "coordinates": [121.5028, 25.0381] }
    },
    {
      "type": "Feature",
      "properties": {
        "addr": "\u81fa\u5317\u5e02\u677e\u5c71\u5340\u81ea\u5f37\u91cc\u81fa\u5317\u5e02\u677e\u5c71\u5340\u4e09\u6c11\u8def35\u5df79\u865f"
      },
      "geometry": { "type": "Point", "coordinates": [121.5625, 25.0553] }
    },
    {
      "type": "Feature",
      "properties": {
        "addr": "\u81fa\u5317\u5e02\u58eb\u6797\u5340\u81e8\u6eaa\u91cc\u81f3\u5584\u8def\u4e8c\u6bb5360\u865f"
      },
      "geometry": { "type": "Point", "coordinates": [121.5555, 25.1036] }
    },
    {
      "type": "Feature",
      "properties": {
        "addr": "\u81fa\u5317\u5e02\u6587\u5c71\u5340\u6728\u65b0\u91cc\u6728\u67f5\u8def\u4e09\u6bb5220\u865f10\u6a13"
      },
      "geometry": { "type": "Point", "coordinates": [121.5701, 24.9896] }
    },
    {
      "type": "Feature",
      "properties": {
        "addr": "\u81fa\u5317\u5e02\u677e\u5c71\u5340\u9d6c\u7a0b\u91cc\u5065\u5eb7\u8def325\u5df77\u865f"
      },
      "geometry": { "type": "Point", "coordinates": [121.5671, 25.0556] }
    },
    {
      "type": "Feature",
      "properties": {
        "addr": "\u81fa\u5317\u5e02\u677e\u5c71\u5340\u6771\u5149\u91cc\u4e09\u6c11\u8def5\u865f"
      },
      "geometry": { "type": "Point", "coordinates": [121.5636, 25.0523] }
    },
    {
      "type": "Feature",
      "properties": {
        "addr": "\u81fa\u5317\u5e02\u842c\u83ef\u5340\u5149\u5fa9\u91cc\u81fa\u5317\u5e02\u4e2d\u83ef\u8def\u4e00\u6bb551-1\u865fB1"
      },
      "geometry": { "type": "Point", "coordinates": [121.5091, 25.044] }
    },
    {
      "type": "Feature",
      "properties": {
        "addr": "\u81fa\u5317\u5e02\u4e2d\u6b63\u5340\u5efa\u570b\u91cc\u81fa\u5317\u5e02\u4e2d\u6b63\u5340\u5bf6\u6176\u8def32\u4e4b1\u865fB1"
      },
      "geometry": { "type": "Point", "coordinates": [121.5091, 25.0417] }
    },
    {
      "type": "Feature",
      "properties": {
        "addr": "\u81fa\u5317\u5e02\u842c\u83ef\u5340\u897f\u9580\u91cc\u6210\u90fd\u8def98\u865f"
      },
      "geometry": { "type": "Point", "coordinates": [121.5036, 25.0432] }
    },
    {
      "type": "Feature",
      "properties": {
        "addr": "\u81fa\u5317\u5e02\u5167\u6e56\u5340\u897f\u6e56\u91cc\u81fa\u5317\u5e02\u5167\u6e56\u5340\u5167\u6e56\u8def1\u6bb5285\u865f"
      },
      "geometry": { "type": "Point", "coordinates": [121.5666, 25.0824] }
    },
    {
      "type": "Feature",
      "properties": {
        "addr": "\u81fa\u5317\u5e02\u5167\u6e56\u5340\u897f\u6e56\u91cc\u81fa\u5317\u5e02\u5167\u6e56\u5340\u5167\u6e56\u8def1\u6bb5285\u865f7\u6a13"
      },
      "geometry": { "type": "Point", "coordinates": [121.5666, 25.0824] }
    },
    {
      "type": "Feature",
      "properties": {
        "addr": "\u81fa\u5317\u5e02\u5167\u6e56\u5340\u897f\u6e56\u91cc\u74b0\u5c71\u8def\u4e00\u6bb525\u865f"
      },
      "geometry": { "type": "Point", "coordinates": [121.5657, 25.0839] }
    },
    {
      "type": "Feature",
      "properties": {
        "addr": "\u81fa\u5317\u5e02\u5167\u6e56\u5340\u897f\u6e56\u91cc\u74b0\u5c71\u8def\u4e00\u6bb527\u865f"
      },
      "geometry": { "type": "Point", "coordinates": [121.5657, 25.0859] }
    },
    {
      "type": "Feature",
      "properties": {
        "addr": "\u81fa\u5317\u5e02\u842c\u83ef\u5340\u65e5\u5584\u91cc\u6771\u5712\u885773\u5df765\u865f"
      },
      "geometry": { "type": "Point", "coordinates": [121.4989, 25.0266] }
    },
    {
      "type": "Feature",
      "properties": {
        "addr": "\u81fa\u5317\u5e02\u842c\u83ef\u5340\u798f\u661f\u91cc\u81fa\u5317\u5e02\u842c\u83ef\u5340\u897f\u5be7\u5357\u8def4\u865fB1"
      },
      "geometry": { "type": "Point", "coordinates": [121.507, 25.0479] }
    },
    {
      "type": "Feature",
      "properties": {
        "addr": "\u81fa\u5317\u5e02\u4fe1\u7fa9\u5340\u4e09\u5f35\u91cc\u677e\u4ec1\u8def226\u865f"
      },
      "geometry": { "type": "Point", "coordinates": [121.5686, 25.0259] }
    },
    {
      "type": "Feature",
      "properties": {
        "addr": "\u81fa\u5317\u5e02\u6587\u5c71\u5340\u666f\u4ec1\u91cc\u666f\u798f\u885721\u5df75\u865f"
      },
      "geometry": { "type": "Point", "coordinates": [121.5388, 24.9987] }
    },
    {
      "type": "Feature",
      "properties": {
        "addr": "\u81fa\u5317\u5e02\u6587\u5c71\u5340\u8208\u660c\u91cc\u8f9b\u4ea5\u8def\u56db\u6bb5103\u865f"
      },
      "geometry": { "type": "Point", "coordinates": [121.5586, 25.0063] }
    },
    {
      "type": "Feature",
      "properties": {
        "addr": "\u81fa\u5317\u5e02\u5927\u5b89\u5340\u82b3\u548c\u91cc\u81e5\u9f8d\u8857100\u865f"
      },
      "geometry": { "type": "Point", "coordinates": [121.5491, 25.0196] }
    },
    {
      "type": "Feature",
      "properties": {
        "addr": "\u81fa\u5317\u5e02\u5927\u5b89\u5340\u6c11\u70a4\u91cc\u4ec1\u611b\u8def3\u6bb522\u865f"
      },
      "geometry": { "type": "Point", "coordinates": [121.535, 25.0376] }
    },
    {
      "type": "Feature",
      "properties": {
        "addr": "\u81fa\u5317\u5e02\u5927\u540c\u5340\u570b\u6176\u91cc\u660c\u5409\u885797\u865f"
      },
      "geometry": { "type": "Point", "coordinates": [121.5124, 25.0661] }
    },
    {
      "type": "Feature",
      "properties": {
        "addr": "\u81fa\u5317\u5e02\u4e2d\u6b63\u5340\u6885\u82b1\u91cc\u5fe0\u5b5d\u6771\u8def\u4e8c\u6bb5101\u865f"
      },
      "geometry": { "type": "Point", "coordinates": [121.5318, 25.0428] }
    },
    {
      "type": "Feature",
      "properties": {
        "addr": "\u81fa\u5317\u5e02\u5927\u540c\u5340\u7389\u6cc9\u91cc\u897f\u5be7\u5317\u8def32\u865f"
      },
      "geometry": { "type": "Point", "coordinates": [121.5083, 25.0512] }
    },
    {
      "type": "Feature",
      "properties": {
        "addr": "\u81fa\u5317\u5e02\u5927\u5b89\u5340\u5149\u6b66\u91cc\u81fa\u5317\u5e02\u5927\u5b89\u5340\u5fe0\u5b5d\u6771\u8def4\u6bb547\u865f"
      },
      "geometry": { "type": "Point", "coordinates": [121.545, 25.0418] }
    },
    {
      "type": "Feature",
      "properties": {
        "addr": "\u81fa\u5317\u5e02\u5927\u5b89\u5340\u6c11\u8f1d\u91cc\u81fa\u5317\u5e02\u5927\u5b89\u5340\u65b0\u751f\u5357\u8def1\u6bb567\u865f"
      },
      "geometry": { "type": "Point", "coordinates": [121.5332, 25.0425] }
    },
    {
      "type": "Feature",
      "properties": {
        "addr": "\u81fa\u5317\u5e02\u6587\u5c71\u5340\u9806\u8208\u91cc\u81fa\u5317\u5e02\u6587\u5c71\u5340\u5fe0\u9806\u88572\u6bb522\u865f2\u6a13"
      },
      "geometry": { "type": "Point", "coordinates": [121.5632, 24.9847] }
    },
    {
      "type": "Feature",
      "properties": {
        "addr": "\u81fa\u5317\u5e02\u4e2d\u6b63\u5340\u5fe0\u52e4\u91cc\u81fa\u5317\u5e02\u4e2d\u6b63\u5340\u4e2d\u83ef\u8def\u4e8c\u6bb5307\u5df717\u865f"
      },
      "geometry": { "type": "Point", "coordinates": [121.5062, 25.0296] }
    },
    {
      "type": "Feature",
      "properties": {
        "addr": "\u81fa\u5317\u5e02\u58eb\u6797\u5340\u540d\u5c71\u91cc\u4e2d\u5c71\u5317\u8def\u516d\u6bb5\u8207\u5fe0\u8aa0\u8def\u4e00\u6bb5\u4ea4\u53c9\u53e3"
      },
      "geometry": { "type": "Point", "coordinates": [121.5247, 25.1041] }
    },
    {
      "type": "Feature",
      "properties": {
        "addr": "\u81fa\u5317\u5e02\u4e2d\u5c71\u5340\u6c38\u5b89\u91cc\u5317\u5b89\u8def538\u5df71\u5f041\u865f\u524d"
      },
      "geometry": { "type": "Point", "coordinates": [121.548, 25.0798] }
    },
    {
      "type": "Feature",
      "properties": {
        "addr": "\u81fa\u5317\u5e02\u5927\u540c\u5340\u91cd\u6176\u91cc\u627f\u5fb7\u8def\u4e09\u6bb5336\u865f"
      },
      "geometry": { "type": "Point", "coordinates": [121.5199, 25.0755] }
    },
    {
      "type": "Feature",
      "properties": {
        "addr": "\u81fa\u5317\u5e02\u5167\u6e56\u5340\u660e\u6e56\u91cc\u5eb7\u5be7\u8def\u4e09\u6bb5105\u865f"
      },
      "geometry": { "type": "Point", "coordinates": [121.6106, 25.0711] }
    },
    {
      "type": "Feature",
      "properties": {
        "addr": "\u81fa\u5317\u5e02\u5167\u6e56\u5340\u846b\u6d32\u91cc\u5eb7\u5be7\u8def\u4e09\u6bb560\u865f"
      },
      "geometry": { "type": "Point", "coordinates": [121.6107, 25.0706] }
    },
    {
      "type": "Feature",
      "properties": {
        "addr": "\u81fa\u5317\u5e02\u6587\u5c71\u5340\u660e\u7fa9\u91cc\u6728\u67f5\u8def\u4e8c\u6bb5138\u5df761\u865f"
      },
      "geometry": { "type": "Point", "coordinates": [121.5626, 24.9873] }
    },
    {
      "type": "Feature",
      "properties": {
        "addr": "\u81fa\u5317\u5e02\u5317\u6295\u5340\u69ae\u83ef\u91cc\u660e\u5fb7\u8def190\u865f"
      },
      "geometry": { "type": "Point", "coordinates": [121.5218, 25.1121] }
    },
    {
      "type": "Feature",
      "properties": {
        "addr": "\u81fa\u5317\u5e02\u5317\u6295\u5340\u5efa\u6c11\u91cc\u660e\u5fb7\u8def50\u865f"
      },
      "geometry": { "type": "Point", "coordinates": [121.5183, 25.1076] }
    },
    {
      "type": "Feature",
      "properties": {
        "addr": "\u81fa\u5317\u5e02\u5927\u5b89\u5340\u6c38\u5eb7\u91cc\u81fa\u5317\u5e02\u5927\u5b89\u5340\u4fe1\u7fa9\u8def2\u6bb5166\u865fB1"
      },
      "geometry": { "type": "Point", "coordinates": [121.5294, 25.0337] }
    },
    {
      "type": "Feature",
      "properties": {
        "addr": "\u81fa\u5317\u5e02\u4e2d\u6b63\u5340\u6771\u9580\u91cc\u4ec1\u611b\u8def\u4e00\u6bb52-4\u865f"
      },
      "geometry": { "type": "Point", "coordinates": [121.5209, 25.0387] }
    },
    {
      "type": "Feature",
      "properties": {
        "addr": "\u81fa\u5317\u5e02\u5927\u5b89\u5340\u5149\u6b66\u91cc\u81fa\u5317\u5e02\u5927\u5b89\u8def\u4e00\u6bb577\u865fB1"
      },
      "geometry": { "type": "Point", "coordinates": [121.5463, 25.0419] }
    },
    {
      "type": "Feature",
      "properties": {
        "addr": "\u81fa\u5317\u5e02\u5167\u6e56\u5340\u6771\u6e56\u91cc\u6771\u6e56\u8def115\u865f"
      },
      "geometry": { "type": "Point", "coordinates": [121.6158, 25.0685] }
    },
    {
      "type": "Feature",
      "properties": {
        "addr": "\u81fa\u5317\u5e02\u5167\u6e56\u5340\u6a02\u5eb7\u91cc\u5eb7\u6a02\u8857131\u865f"
      },
      "geometry": { "type": "Point", "coordinates": [121.6195, 25.0723] }
    },
    {
      "type": "Feature",
      "properties": {
        "addr": "\u81fa\u5317\u5e02\u5357\u6e2f\u5340\u6771\u65b0\u91cc\u8208\u5357\u885762\u865f"
      },
      "geometry": { "type": "Point", "coordinates": [121.602, 25.0562] }
    },
    {
      "type": "Feature",
      "properties": {
        "addr": "\u81fa\u5317\u5e02\u4fe1\u7fa9\u5340\u5ee3\u5c45\u91cc\u5fe0\u5b5d\u6771\u8def\u4e94\u6bb5236\u5df715\u865f"
      },
      "geometry": { "type": "Point", "coordinates": [121.572, 25.0398] }
    },
    {
      "type": "Feature",
      "properties": {
        "addr": "\u81fa\u5317\u5e02\u4fe1\u7fa9\u5340\u677e\u9686\u91cc\u677e\u5c71\u8def655\u865f"
      },
      "geometry": { "type": "Point", "coordinates": [121.5813, 25.0341] }
    },
    {
      "type": "Feature",
      "properties": {
        "addr": "\u81fa\u5317\u5e02\u4fe1\u7fa9\u5340\u65b0\u4ec1\u91cc\u57fa\u9686\u8def\u4e00\u6bb5156\u865f"
      },
      "geometry": { "type": "Point", "coordinates": [121.5658, 25.0439] }
    },
    {
      "type": "Feature",
      "properties": {
        "addr": "\u81fa\u5317\u5e02\u677e\u5c71\u5340\u6148\u7950\u91cc\u516b\u5fb7\u8def\u56db\u6bb5746\u865f"
      },
      "geometry": { "type": "Point", "coordinates": [121.5793, 25.0512] }
    },
    {
      "type": "Feature",
      "properties": {
        "addr": "\u81fa\u5317\u5e02\u4e2d\u5c71\u5340\u4e2d\u5409\u91cc\u81fa\u5317\u5e02\u4e2d\u5c71\u5340\u677e\u6c5f\u8def126\u865fB1"
      },
      "geometry": { "type": "Point", "coordinates": [121.5328, 25.0519] }
    },
    {
      "type": "Feature",
      "properties": {
        "addr": "\u81fa\u5317\u5e02\u4fe1\u7fa9\u5340\u5b89\u5eb7\u91cc\u677e\u5fb7\u8def180\u5df7\u8208\u96c5\u570b\u4e2d\u6771\u5074"
      },
      "geometry": { "type": "Point", "coordinates": [121.5735, 25.0353] }
    },
    {
      "type": "Feature",
      "properties": {
        "addr": "\u81fa\u5317\u5e02\u6587\u5c71\u5340\u842c\u7965\u91cc\u8208\u9686\u8def\u4e00\u6bb568\u865f"
      },
      "geometry": { "type": "Point", "coordinates": [121.5405, 25.0039] }
    },
    {
      "type": "Feature",
      "properties": {
        "addr": "\u81fa\u5317\u5e02\u4e2d\u6b63\u5340\u6cb3\u5824\u91cc\u6c40\u5dde\u8def\u4e8c\u6bb5180\u865f"
      },
      "geometry": { "type": "Point", "coordinates": [121.5227, 25.0232] }
    },
    {
      "type": "Feature",
      "properties": {
        "addr": "\u81fa\u5317\u5e02\u58eb\u6797\u5340\u793e\u5712\u91cc\u6c38\u5e73\u885720\u5df711\u5f043\u865f\u5c0d\u9762"
      },
      "geometry": { "type": "Point", "coordinates": [121.5057, 25.0902] }
    },
    {
      "type": "Feature",
      "properties": {
        "addr": "\u81fa\u5317\u5e02\u58eb\u6797\u5340\u6c38\u502b\u91cc\u5ef6\u5e73\u5317\u8def\u516d\u6bb5308\u865f"
      },
      "geometry": { "type": "Point", "coordinates": [121.5029, 25.0899] }
    },
    {
      "type": "Feature",
      "properties": {
        "addr": "\u81fa\u5317\u5e02\u5357\u6e2f\u5340\u5357\u6e2f\u91cc\u91cd\u967d\u8def366\u865f"
      },
      "geometry": { "type": "Point", "coordinates": [121.6092, 25.0587] }
    },
    {
      "type": "Feature",
      "properties": {
        "addr": "\u81fa\u5317\u5e02\u58eb\u6797\u5340\u829d\u5c71\u91cc\u5fb7\u884c\u6771\u8def285\u865f"
      },
      "geometry": { "type": "Point", "coordinates": [121.5365, 25.1104] }
    },
    {
      "type": "Feature",
      "properties": {
        "addr": "\u81fa\u5317\u5e02\u4e2d\u5c71\u5340\u5713\u5c71\u91cc\u7389\u9580\u88571\u865f.(\u7389\u6cc9\u8857\u4ee5\u6771,\u4e2d\u5c71\u5317\u8def\u4ee5\u897f,\u9152\u6cc9\u8857\u4ee5\u5317)"
      },
      "geometry": { "type": "Point", "coordinates": [121.5205, 25.0704] }
    },
    {
      "type": "Feature",
      "properties": {
        "addr": "\u81fa\u5317\u5e02\u5927\u5b89\u5340\u82b3\u548c\u91cc\u81e5\u9f8d\u8857170\u865f"
      },
      "geometry": { "type": "Point", "coordinates": [121.5503, 25.0187] }
    },
    {
      "type": "Feature",
      "properties": {
        "addr": "\u81fa\u5317\u5e02\u4e2d\u5c71\u5340\u91d1\u6cf0\u91cc\u6a02\u7fa4\u4e00\u8def\u65c1,\u57fa\u9686\u6cb3\u622a\u5f4e\u53d6\u76f4\u7bc4\u570d\u5167"
      },
      "geometry": { "type": "Point", "coordinates": [121.56, 25.0765] }
    },
    {
      "type": "Feature",
      "properties": {
        "addr": "\u81fa\u5317\u5e02\u5927\u5b89\u5340\u6c38\u5eb7\u91cc\u611b\u570b\u6771\u8def79\u5df711\u865f"
      },
      "geometry": { "type": "Point", "coordinates": [121.5278, 25.0322] }
    },
    {
      "type": "Feature",
      "properties": {
        "addr": "\u81fa\u5317\u5e02\u5927\u5b89\u5340\u798f\u4f4f\u91cc\u65b0\u751f\u5357\u8def\u4e8c\u6bb532\u865f"
      },
      "geometry": { "type": "Point", "coordinates": [121.5331, 25.0312] }
    },
    {
      "type": "Feature",
      "properties": {
        "addr": "\u81fa\u5317\u5e02\u4e2d\u5c71\u5340\u8208\u4e9e\u91cc\u5409\u6797\u8def15\u865f"
      },
      "geometry": { "type": "Point", "coordinates": [121.5302, 25.0498] }
    },
    {
      "type": "Feature",
      "properties": {
        "addr": "\u81fa\u5317\u5e02\u4e2d\u5c71\u5340\u8208\u4e9e\u91cc\u677e\u6c5f\u8def70\u5df711\u865f"
      },
      "geometry": { "type": "Point", "coordinates": [121.5319, 25.0494] }
    },
    {
      "type": "Feature",
      "properties": {
        "addr": "\u81fa\u5317\u5e02\u4e2d\u5c71\u5340\u9f8d\u6d32\u91cc\u81fa\u5317\u5e02\u4e2d\u5c71\u5340\u9577\u6625\u8def299\u865f1\u6a13"
      },
      "geometry": { "type": "Point", "coordinates": [121.5423, 25.0547] }
    },
    {
      "type": "Feature",
      "properties": {
        "addr": "\u81fa\u5317\u5e02\u4e2d\u5c71\u5340\u4e2d\u592e\u91cc\u9577\u6625\u8def165\u865f"
      },
      "geometry": { "type": "Point", "coordinates": [121.5339, 25.0549] }
    },
    {
      "type": "Feature",
      "properties": {
        "addr": "\u81fa\u5317\u5e02\u58eb\u6797\u5340\u540d\u5c71\u91cc\u5fe0\u7fa9\u88571\u865f"
      },
      "geometry": { "type": "Point", "coordinates": [121.5299, 25.1053] }
    },
    {
      "type": "Feature",
      "properties": {
        "addr": "\u81fa\u5317\u5e02\u58eb\u6797\u5340\u5ca9\u5c71\u91cc\u81f3\u8aa0\u8def\u4e00\u6bb562\u5df770\u865f"
      },
      "geometry": { "type": "Point", "coordinates": [121.5351, 25.103] }
    },
    {
      "type": "Feature",
      "properties": {
        "addr": "\u81fa\u5317\u5e02\u842c\u83ef\u5340\u9a30\u96f2\u91cc\u6c34\u6e90\u8def199\u865f"
      },
      "geometry": { "type": "Point", "coordinates": [121.507, 25.0221] }
    },
    {
      "type": "Feature",
      "properties": {
        "addr": "\u81fa\u5317\u5e02\u842c\u83ef\u5340\u9a30\u96f2\u91cc\u53f0\u5317\u5e02\u842c\u83ef\u5340\u6c34\u6e90\u8def199\u865f"
      },
      "geometry": { "type": "Point", "coordinates": [121.507, 25.0221] }
    },
    {
      "type": "Feature",
      "properties": {
        "addr": "\u81fa\u5317\u5e02\u4fe1\u7fa9\u5340\u666f\u65b0\u91cc\u677e\u52e4\u885760\u865f"
      },
      "geometry": { "type": "Point", "coordinates": [121.5632, 25.0318] }
    },
    {
      "type": "Feature",
      "properties": {
        "addr": "\u81fa\u5317\u5e02\u4fe1\u7fa9\u5340\u4e09\u5f35\u91cc\u677e\u4ec1\u8def158\u5df71\u865f"
      },
      "geometry": { "type": "Point", "coordinates": [121.5688, 25.0407] }
    },
    {
      "type": "Feature",
      "properties": {
        "addr": "\u81fa\u5317\u5e02\u58eb\u6797\u5340\u524d\u6e2f\u91cc\u83ef\u9f61\u8857\u8207\u524d\u6e2f\u8857\u4ea4\u53c9\u53e3(\u767e\u9f61\u570b\u5c0f\u5c0d\u9762)"
      },
      "geometry": { "type": "Point", "coordinates": [121.5193, 25.0851] }
    },
    {
      "type": "Feature",
      "properties": {
        "addr": "\u81fa\u5317\u5e02\u677e\u5c71\u5340\u4e2d\u6b63\u91cc\u81fa\u5317\u5e02\u677e\u5c71\u5340\u5357\u4eac\u6771\u8def3\u6bb5253\u865f"
      },
      "geometry": { "type": "Point", "coordinates": [121.5441, 25.052] }
    },
    {
      "type": "Feature",
      "properties": {
        "addr": "\u81fa\u5317\u5e02\u4e2d\u6b63\u5340\u5357\u9580\u91cc\u5ee3\u5dde\u88576\u865f"
      },
      "geometry": { "type": "Point", "coordinates": [121.5091, 25.0352] }
    },
    {
      "type": "Feature",
      "properties": {
        "addr": "\u81fa\u5317\u5e02\u4e2d\u6b63\u5340\u5357\u9580\u91cc\u5ee3\u5dde\u88576\u865f"
      },
      "geometry": { "type": "Point", "coordinates": [121.5091, 25.0352] }
    },
    {
      "type": "Feature",
      "properties": {
        "addr": "\u81fa\u5317\u5e02\u5357\u6e2f\u5340\u6210\u798f\u91cc\u6771\u65b0\u8857170-1\u865f"
      },
      "geometry": { "type": "Point", "coordinates": [121.5912, 25.0458] }
    },
    {
      "type": "Feature",
      "properties": {
        "addr": "\u81fa\u5317\u5e02\u5357\u6e2f\u5340\u65b0\u5bcc\u91cc\u81fa\u5317\u5e02\u5357\u6e2f\u5340\u7814\u7a76\u9662\u8def1\u6bb51\u865f"
      },
      "geometry": { "type": "Point", "coordinates": [121.6168, 25.0549] }
    },
    {
      "type": "Feature",
      "properties": {
        "addr": "\u81fa\u5317\u5e02\u5357\u6e2f\u5340\u5357\u6e2f\u91cc\u8208\u4e2d\u8def29\u865f"
      },
      "geometry": { "type": "Point", "coordinates": [121.6072, 25.0563] }
    },
    {
      "type": "Feature",
      "properties": {
        "addr": "\u81fa\u5317\u5e02\u5357\u6e2f\u5340\u897f\u65b0\u91cc\u5411\u967d\u8def21\u865f"
      },
      "geometry": { "type": "Point", "coordinates": [121.595, 25.0525] }
    },
    {
      "type": "Feature",
      "properties": {
        "addr": "\u81fa\u5317\u5e02\u5357\u6e2f\u5340\u4e09\u91cd\u91cc\u60e0\u6c11\u885767\u865f"
      },
      "geometry": { "type": "Point", "coordinates": [121.6104, 25.0575] }
    },
    {
      "type": "Feature",
      "properties": {
        "addr": "\u81fa\u5317\u5e02\u5357\u6e2f\u5340\u4e2d\u5357\u91cc\u81fa\u5317\u5e02\u5357\u6e2f\u5340\u5fe0\u5b5d\u6771\u8def7\u6bb5359\u865f"
      },
      "geometry": { "type": "Point", "coordinates": [121.606, 25.0525] }
    },
    {
      "type": "Feature",
      "properties": {
        "addr": "\u81fa\u5317\u5e02\u5167\u6e56\u5340\u5357\u6e56\u91cc\u5eb7\u5be7\u8def\u4e09\u6bb5220\u865f"
      },
      "geometry": { "type": "Point", "coordinates": [121.6111, 25.0669] }
    },
    {
      "type": "Feature",
      "properties": {
        "addr": "\u81fa\u5317\u5e02\u5167\u6e56\u5340\u5357\u6e56\u91cc\u5eb7\u5be7\u8def\u4e09\u6bb5200\u865f"
      },
      "geometry": { "type": "Point", "coordinates": [121.6118, 25.0681] }
    },
    {
      "type": "Feature",
      "properties": {
        "addr": "\u81fa\u5317\u5e02\u5927\u5b89\u5340\u9f8d\u96f2\u91cc\u5927\u5b89\u8def\u4e8c\u6bb599\u865f"
      },
      "geometry": { "type": "Point", "coordinates": [121.5462, 25.0294] }
    },
    {
      "type": "Feature",
      "properties": {
        "addr": "\u81fa\u5317\u5e02\u5927\u540c\u5340\u5149\u80fd\u91cc\u627f\u5fb7\u8def\u4e8c\u6bb535\u865f\u65c1"
      },
      "geometry": { "type": "Point", "coordinates": [121.5185, 25.0548] }
    },
    {
      "type": "Feature",
      "properties": {
        "addr": "\u81fa\u5317\u5e02\u5927\u540c\u5340\u5efa\u6cf0\u91cc\u9577\u5b89\u897f\u8def37\u4e4b1\u865f"
      },
      "geometry": { "type": "Point", "coordinates": [121.5196, 25.0504] }
    },
    {
      "type": "Feature",
      "properties": {
        "addr": "\u81fa\u5317\u5e02\u4e2d\u6b63\u5340\u9f8d\u5149\u91cc\u5357\u6d77\u8def56\u865f"
      },
      "geometry": { "type": "Point", "coordinates": [121.5122, 25.0312] }
    },
    {
      "type": "Feature",
      "properties": {
        "addr": "\u81fa\u5317\u5e02\u6587\u5c71\u5340\u6307\u5357\u91cc\u6307\u5357\u8def\u4e09\u6bb538\u5df75-2\u865f"
      },
      "geometry": { "type": "Point", "coordinates": [121.5837, 24.9764] }
    },
    {
      "type": "Feature",
      "properties": {
        "addr": "\u81fa\u5317\u5e02\u5317\u6295\u5340\u6cc9\u6e90\u91cc\u6771\u6607\u8def34\u865f"
      },
      "geometry": { "type": "Point", "coordinates": [121.5243, 25.1493] }
    },
    {
      "type": "Feature",
      "properties": {
        "addr": "\u81fa\u5317\u5e02\u58eb\u6797\u5340\u798f\u4f73\u91cc\u7f8e\u5d19\u8857152\u5df7"
      },
      "geometry": { "type": "Point", "coordinates": [121.5189, 25.0979] }
    },
    {
      "type": "Feature",
      "properties": {
        "addr": "\u81fa\u5317\u5e02\u5357\u6e2f\u5340\u4e2d\u7814\u91cc\u820a\u838a\u8857\u4e00\u6bb51\u865f"
      },
      "geometry": { "type": "Point", "coordinates": [121.6172, 25.0424] }
    },
    {
      "type": "Feature",
      "properties": {
        "addr": "\u81fa\u5317\u5e02\u5927\u540c\u5340\u91cd\u6176\u91cc\u6566\u714c\u8def19\u865f"
      },
      "geometry": { "type": "Point", "coordinates": [121.5179, 25.0759] }
    },
    {
      "type": "Feature",
      "properties": {
        "addr": "\u81fa\u5317\u5e02\u5357\u6e2f\u5340\u6210\u798f\u91cc\u6771\u65b0\u8857118\u5df786\u865f"
      },
      "geometry": { "type": "Point", "coordinates": [121.5896, 25.0456] }
    },
    {
      "type": "Feature",
      "properties": {
        "addr": "\u81fa\u5317\u5e02\u5317\u6295\u5340\u69ae\u83ef\u91cc\u5929\u6bcd\u897f\u8def\u3001\u78fa\u6eaa\u4ea4\u53c9\u53e3"
      },
      "geometry": { "type": "Point", "coordinates": [121.523, 25.119] }
    },
    {
      "type": "Feature",
      "properties": {
        "addr": "\u81fa\u5317\u5e02\u58eb\u6797\u5340\u967d\u660e\u91cc\u4ef0\u5fb7\u5927\u9053\u56db\u6bb575\u865f"
      },
      "geometry": { "type": "Point", "coordinates": [121.5468, 25.1311] }
    },
    {
      "type": "Feature",
      "properties": {
        "addr": "\u81fa\u5317\u5e02\u5317\u6295\u5340\u6843\u6e90\u91cc\u4e2d\u592e\u5317\u8def\u4e09\u6bb540\u5df745\u865f"
      },
      "geometry": { "type": "Point", "coordinates": [121.4845, 25.1398] }
    },
    {
      "type": "Feature",
      "properties": {
        "addr": "\u81fa\u5317\u5e02\u5317\u6295\u5340\u4e00\u5fb7\u91cc\u4e2d\u592e\u5317\u8def\u56db\u6bb548\u865f"
      },
      "geometry": { "type": "Point", "coordinates": [121.4773, 25.1347] }
    },
    {
      "type": "Feature",
      "properties": {
        "addr": "\u81fa\u5317\u5e02\u677e\u5c71\u5340\u81ea\u5f37\u91cc\u5ef6\u58fd\u8857168\u865f"
      },
      "geometry": { "type": "Point", "coordinates": [121.5629, 25.0567] }
    },
    {
      "type": "Feature",
      "properties": {
        "addr": "\u81fa\u5317\u5e02\u4e2d\u6b63\u5340\u9f8d\u5149\u91cc\u5357\u6d77\u8def58\u865f"
      },
      "geometry": { "type": "Point", "coordinates": [121.511, 25.0309] }
    },
    {
      "type": "Feature",
      "properties": {
        "addr": "\u81fa\u5317\u5e02\u5927\u540c\u5340\u570b\u6176\u91cc\u81fa\u5317\u5e02\u5927\u540c\u5340\u91cd\u6176\u5317\u8def3\u6bb576\u865f4\u6a13"
      },
      "geometry": { "type": "Point", "coordinates": [121.5135, 25.0661] }
    },
    {
      "type": "Feature",
      "properties": {
        "addr": "\u81fa\u5317\u5e02\u5167\u6e56\u5340\u6e05\u767d\u91cc\u661f\u96f2\u8857121\u865f"
      },
      "geometry": { "type": "Point", "coordinates": [121.5949, 25.08] }
    },
    {
      "type": "Feature",
      "properties": {
        "addr": "\u81fa\u5317\u5e02\u5317\u6295\u5340\u5947\u5ca9\u91cc\u516c\u9928\u8def220\u865f"
      },
      "geometry": { "type": "Point", "coordinates": [121.5077, 25.1268] }
    },
    {
      "type": "Feature",
      "properties": {
        "addr": "\u81fa\u5317\u5e02\u6587\u5c71\u5340\u842c\u8208\u91cc\u81fa\u5317\u5e02\u6587\u5c71\u5340\u842c\u58fd\u8def27\u865f\u5730\u4e0b\u4e00\u81f3\u4e8c\u6a13"
      },
      "geometry": { "type": "Point", "coordinates": [121.5765, 24.9887] }
    },
    {
      "type": "Feature",
      "properties": {
        "addr": "\u81fa\u5317\u5e02\u4fe1\u7fa9\u5340\u5b89\u5eb7\u91cc\u677e\u4ec1\u8def95\u5df720\u865f"
      },
      "geometry": { "type": "Point", "coordinates": [121.5711, 25.0364] }
    },
    {
      "type": "Feature",
      "properties": {
        "addr": "\u81fa\u5317\u5e02\u6587\u5c71\u5340\u535a\u5609\u91cc\u6728\u67f5\u8def\u56db\u6bb5159\u5df714-1\u865f"
      },
      "geometry": { "type": "Point", "coordinates": [121.5758, 25.0021] }
    },
    {
      "type": "Feature",
      "properties": {
        "addr": "\u81fa\u5317\u5e02\u58eb\u6797\u5340\u5bcc\u6d32\u91cc\u5ef6\u5e73\u5317\u8def\u516b\u6bb5135\u865f"
      },
      "geometry": { "type": "Point", "coordinates": [121.4824, 25.1059] }
    },
    {
      "type": "Feature",
      "properties": {
        "addr": "\u81fa\u5317\u5e02\u5317\u6295\u5340\u4e2d\u5fc3\u91cc\u4e2d\u548c\u8857200\u865f"
      },
      "geometry": { "type": "Point", "coordinates": [121.5024, 25.139] }
    },
    {
      "type": "Feature",
      "properties": {
        "addr": "\u81fa\u5317\u5e02\u5317\u6295\u5340\u958b\u660e\u91cc\u5fa9\u8208\u56db\u8def70\u865f"
      },
      "geometry": { "type": "Point", "coordinates": [121.5018, 25.1437] }
    },
    {
      "type": "Feature",
      "properties": {
        "addr": "\u81fa\u5317\u5e02\u5317\u6295\u5340\u6587\u5316\u91cc\u4e2d\u592e\u5317\u8def\u4e8c\u6bb570\u865f"
      },
      "geometry": { "type": "Point", "coordinates": [121.4929, 25.1381] }
    },
    {
      "type": "Feature",
      "properties": {
        "addr": "\u81fa\u5317\u5e02\u677e\u5c71\u5340\u4e2d\u6b63\u91cc\u6566\u5316\u5317\u8def2\u865f"
      },
      "geometry": { "type": "Point", "coordinates": [121.5485, 25.0491] }
    },
    {
      "type": "Feature",
      "properties": {
        "addr": "\u81fa\u5317\u5e02\u677e\u5c71\u5340\u4e2d\u6b63\u91cc\u5357\u4eac\u6771\u8def\u4e09\u6bb5300\u865f"
      },
      "geometry": { "type": "Point", "coordinates": [121.5468, 25.0515] }
    },
    {
      "type": "Feature",
      "properties": {
        "addr": "\u81fa\u5317\u5e02\u6587\u5c71\u5340\u666f\u884c\u91cc\u81fa\u5317\u5e02\u6587\u5c71\u5340\u7f85\u65af\u798f\u8def\u516d\u6bb5393\u865f6~9\u6a13"
      },
      "geometry": { "type": "Point", "coordinates": [121.5407, 24.9921] }
    },
    {
      "type": "Feature",
      "properties": {
        "addr": "\u81fa\u5317\u5e02\u6587\u5c71\u5340\u6a1f\u6587\u91cc\u6728\u65b0\u8def\u4e09\u6bb5312\u865f"
      },
      "geometry": { "type": "Point", "coordinates": [121.5562, 24.9807] }
    },
    {
      "type": "Feature",
      "properties": {
        "addr": "\u81fa\u5317\u5e02\u6587\u5c71\u5340\u666f\u884c\u91cc\u666f\u6587\u8857108\u865f"
      },
      "geometry": { "type": "Point", "coordinates": [121.5408, 24.9895] }
    },
    {
      "type": "Feature",
      "properties": {
        "addr": "\u81fa\u5317\u5e02\u6587\u5c71\u5340\u666f\u83ef\u91cc\u666f\u4e2d\u885727\u865f"
      },
      "geometry": { "type": "Point", "coordinates": [121.543, 24.993] }
    },
    {
      "type": "Feature",
      "properties": {
        "addr": "\u81fa\u5317\u5e02\u6587\u5c71\u5340\u666f\u83ef\u91cc\u666f\u8208\u8def\u8207\u666f\u83ef\u8857\u4ea4\u4e49\u53e3"
      },
      "geometry": { "type": "Point", "coordinates": [121.5446, 24.9951] }
    },
    {
      "type": "Feature",
      "properties": {
        "addr": "\u81fa\u5317\u5e02\u4fe1\u7fa9\u5340\u666f\u52e4\u91cc\u5433\u8208\u8857220\u5df759\u5f04\u65c1(\u9678\u8ecd\u4fdd\u990a\u5ee0)"
      },
      "geometry": { "type": "Point", "coordinates": [121.5629, 25.0276] }
    },
    {
      "type": "Feature",
      "properties": {
        "addr": "\u81fa\u5317\u5e02\u4fe1\u7fa9\u5340\u666f\u52e4\u91cc\u4fe1\u5b89\u8857\u3001\u5433\u8208\u8857220\u5df7\u4ea4\u53e3"
      },
      "geometry": { "type": "Point", "coordinates": [121.562, 25.0268] }
    },
    {
      "type": "Feature",
      "properties": {
        "addr": "\u81fa\u5317\u5e02\u6587\u5c71\u5340\u8208\u5b89\u91cc\u666f\u83ef\u8857150\u5df721\u865f"
      },
      "geometry": { "type": "Point", "coordinates": [121.5482, 24.9961] }
    },
    {
      "type": "Feature",
      "properties": {
        "addr": "\u81fa\u5317\u5e02\u6587\u5c71\u5340\u666f\u83ef\u91cc\u666f\u8208\u8def46\u5df72\u865f"
      },
      "geometry": { "type": "Point", "coordinates": [121.5443, 24.9962] }
    },
    {
      "type": "Feature",
      "properties": {
        "addr": "\u81fa\u5317\u5e02\u5167\u6e56\u5340\u6e2f\u83ef\u91cc\u81fa\u5317\u5e02\u5167\u6e56\u5340\u74b0\u5c71\u8def\u4e8c\u6bb568\u5df714\u865f"
      },
      "geometry": { "type": "Point", "coordinates": [121.5751, 25.0867] }
    },
    {
      "type": "Feature",
      "properties": {
        "addr": "\u81fa\u5317\u5e02\u5167\u6e56\u5340\u6e2f\u5898\u91cc\u81fa\u5317\u5e02\u5167\u6e56\u5340\u5167\u6e56\u8def\u4e00\u6bb5552\u865f"
      },
      "geometry": { "type": "Point", "coordinates": [121.5761, 25.0796] }
    },
    {
      "type": "Feature",
      "properties": {
        "addr": "\u81fa\u5317\u5e02\u5317\u6295\u5340\u6e56\u5c71\u91cc\u6e56\u5e95\u8def11\u865f"
      },
      "geometry": { "type": "Point", "coordinates": [121.5355, 25.15] }
    },
    {
      "type": "Feature",
      "properties": {
        "addr": "\u81fa\u5317\u5e02\u5317\u6295\u5340\u6e56\u7530\u91cc\u7af9\u5b50\u6e56\u8def17\u4e4b2\u865f"
      },
      "geometry": { "type": "Point", "coordinates": [121.5401, 25.1683] }
    },
    {
      "type": "Feature",
      "properties": {
        "addr": "\u81fa\u5317\u5e02\u5167\u6e56\u5340\u6e56\u8208\u91cc\u81fa\u5317\u5e02\u5167\u6e56\u5340\u6210\u529f\u8def\u4e8c\u6bb5320\u5df719\u865f3\u6a13"
      },
      "geometry": { "type": "Point", "coordinates": [121.59, 25.0677] }
    },
    {
      "type": "Feature",
      "properties": {
        "addr": "\u81fa\u5317\u5e02\u4e2d\u5c71\u5340\u6b63\u5f97\u3001\u6b63\u5b88\u91cc\u5e02\u6c11\u5927\u9053\u4e8c\u6bb5"
      },
      "geometry": { "type": "Point", "coordinates": [121.5261, 25.0475] }
    },
    {
      "type": "Feature",
      "properties": {
        "addr": "\u81fa\u5317\u5e02\u842c\u83ef\u5340\u65e5\u5584\u91cc\u897f\u85cf\u8def213\u865f"
      },
      "geometry": { "type": "Point", "coordinates": [121.4962, 25.0285] }
    },
    {
      "type": "Feature",
      "properties": {
        "addr": "\u81fa\u5317\u5e02\u842c\u83ef\u5340\u83ef\u6c5f\u91cc\u74b0\u6cb3\u5357\u8def\u4e8c\u6bb5250\u5df742\u5f042\u865f"
      },
      "geometry": { "type": "Point", "coordinates": [121.4912, 25.0341] }
    },
    {
      "type": "Feature",
      "properties": {
        "addr": "\u81fa\u5317\u5e02\u5317\u6295\u5340\u4e2d\u5fc3\u91cc\u65b0\u6c11\u8def2\u865f"
      },
      "geometry": { "type": "Point", "coordinates": [121.5052, 25.1383] }
    },
    {
      "type": "Feature",
      "properties": {
        "addr": "\u81fa\u5317\u5e02\u58eb\u6797\u5340\u65b0\u5b89\u91cc\u4ef0\u5fb7\u5927\u9053\u4e09\u6bb561\u865f"
      },
      "geometry": { "type": "Point", "coordinates": [121.5528, 25.1193] }
    },
    {
      "type": "Feature",
      "properties": {
        "addr": "\u81fa\u5317\u5e02\u58eb\u6797\u5340\u5f8c\u6e2f\u91cc\u4e2d\u6b63\u8def510\u865f"
      },
      "geometry": { "type": "Point", "coordinates": [121.5172, 25.0919] }
    },
    {
      "type": "Feature",
      "properties": {
        "addr": "\u81fa\u5317\u5e02\u5317\u6295\u5340\u6797\u6cc9\u91cc\u65b0\u6c11\u8def10\u865f"
      },
      "geometry": { "type": "Point", "coordinates": [121.5066, 25.1389] }
    },
    {
      "type": "Feature",
      "properties": {
        "addr": "\u81fa\u5317\u5e02\u4e2d\u5c71\u5340\u65b0\u5e84\u91cc\u65b0\u751f\u5317\u8def\u4e09\u6bb5105\u865f"
      },
      "geometry": { "type": "Point", "coordinates": [121.5288, 25.0702] }
    },
    {
      "type": "Feature",
      "properties": {
        "addr": "\u81fa\u5317\u5e02\u5927\u5b89\u5340\u9f8d\u5b89\u91cc\u65b0\u751f\u5357\u8def\u4e8c\u6bb536\u865f"
      },
      "geometry": { "type": "Point", "coordinates": [121.5336, 25.0299] }
    },
    {
      "type": "Feature",
      "properties": {
        "addr": "\u81fa\u5317\u5e02\u842c\u83ef\u5340\u65b0\u5b89\u91cc\u897f\u85cf\u8def125\u5df731\u865f"
      },
      "geometry": { "type": "Point", "coordinates": [121.5033, 25.026] }
    },
    {
      "type": "Feature",
      "properties": {
        "addr": "\u81fa\u5317\u5e02\u5167\u6e56\u5340\u6e56\u8208\u91cc\u6c11\u6b0a\u6771\u8def\u516d\u6bb5138\u865f"
      },
      "geometry": { "type": "Point", "coordinates": [121.5887, 25.0688] }
    },
    {
      "type": "Feature",
      "properties": {
        "addr": "\u81fa\u5317\u5e02\u4e2d\u5c71\u5340\u805a\u8449\u91cc\u6797\u68ee\u5317\u8def511\u865f"
      },
      "geometry": { "type": "Point", "coordinates": [121.5258, 25.062] }
    },
    {
      "type": "Feature",
      "properties": {
        "addr": "\u81fa\u5317\u5e02\u6587\u5c71\u5340\u666f\u6176\u91cc\u666f\u798f\u8857225\u865f"
      },
      "geometry": { "type": "Point", "coordinates": [121.5387, 24.9941] }
    },
    {
      "type": "Feature",
      "properties": {
        "addr": "\u81fa\u5317\u5e02\u58eb\u6797\u5340\u6eaa\u5c71\u91cc\u81f3\u5584\u8def\u4e09\u6bb5199\u865f"
      },
      "geometry": { "type": "Point", "coordinates": [121.5797, 25.1198] }
    },
    {
      "type": "Feature",
      "properties": {
        "addr": "\u81fa\u5317\u5e02\u842c\u83ef\u5340\u5168\u5fb7\u91cc\u842c\u5927\u8def346\u865f"
      },
      "geometry": { "type": "Point", "coordinates": [121.4993, 25.023] }
    },
    {
      "type": "Feature",
      "properties": {
        "addr": "\u81fa\u5317\u5e02\u6587\u5c71\u5340\u842c\u548c\u91cc\u81fa\u5317\u5e02\u6587\u5c71\u5340\u842c\u9686\u885747\u4e4b12\u865f\u5730\u4e0b1\u5c64"
      },
      "geometry": { "type": "Point", "coordinates": [121.537, 25.0006] }
    },
    {
      "type": "Feature",
      "properties": {
        "addr": "\u81fa\u5317\u5e02\u6587\u5c71\u5340\u8208\u5149\u91cc\u8208\u9686\u8def\u4e09\u6bb5115\u5df71\u865f"
      },
      "geometry": { "type": "Point", "coordinates": [121.5588, 25.0006] }
    },
    {
      "type": "Feature",
      "properties": {
        "addr": "\u81fa\u5317\u5e02\u6587\u5c71\u5340\u842c\u82b3\u91cc\u81fa\u5317\u5e02\u6587\u5c71\u5340\u842c\u7f8e\u8857\u4e00\u6bb551\u865f3\u6a13"
      },
      "geometry": { "type": "Point", "coordinates": [121.5685, 25.0023] }
    },
    {
      "type": "Feature",
      "properties": {
        "addr": "\u81fa\u5317\u5e02\u6587\u5c71\u5340\u842c\u82b3\u91cc\u842c\u548c\u88571\u865f"
      },
      "geometry": { "type": "Point", "coordinates": [121.5676, 25.0013] }
    },
    {
      "type": "Feature",
      "properties": {
        "addr": "\u81fa\u5317\u5e02\u842c\u83ef\u5340\u65e5\u5584\u91cc\u897f\u85cf\u8def201\u865f"
      },
      "geometry": { "type": "Point", "coordinates": [121.4987, 25.0292] }
    },
    {
      "type": "Feature",
      "properties": {
        "addr": "\u81fa\u5317\u5e02\u6587\u5c71\u5340\u842c\u548c\u91cc\u81fa\u5317\u5e02\u6587\u5c71\u5340\u842c\u9686\u885747\u4e4b12\u865f\u623f\u5c4b\u5730\u4e0b\u5c64"
      },
      "geometry": { "type": "Point", "coordinates": [121.537, 25.0006] }
    },
    {
      "type": "Feature",
      "properties": {
        "addr": "\u81fa\u5317\u5e02\u6587\u5c71\u5340\u842c\u5e74\u91cc\u7f85\u65af\u798f\u4e94\u6bb5170\u5df732\u865f"
      },
      "geometry": { "type": "Point", "coordinates": [121.5703, 24.9895] }
    },
    {
      "type": "Feature",
      "properties": {
        "addr": "\u81fa\u5317\u5e02\u6587\u5c71\u5340\u842c\u8208\u91cc\u81fa\u5317\u5e02\u6587\u5c71\u5340\u842c\u58fd\u8def27\u865f7\u6a13"
      },
      "geometry": { "type": "Point", "coordinates": [121.5765, 24.9887] }
    },
    {
      "type": "Feature",
      "properties": {
        "addr": "\u81fa\u5317\u5e02\u6587\u5c71\u5340\u842c\u8208\u91cc\u79c0\u660e\u8def\u4e8c\u6bb5114\u865f"
      },
      "geometry": { "type": "Point", "coordinates": [121.5766, 24.9904] }
    },
    {
      "type": "Feature",
      "properties": {
        "addr": "\u81fa\u5317\u5e02\u5317\u6295\u5340\u6cc9\u6e90\u91cc\u73e0\u6d77\u8def155\u865f"
      },
      "geometry": { "type": "Point", "coordinates": [121.5093, 25.142] }
    },
    {
      "type": "Feature",
      "properties": {
        "addr": "\u81fa\u5317\u5e02\u58eb\u6797\u5340\u846b\u8606\u91cc\u74b0\u6cb3\u5317\u8def\u4e09\u6bb595\u865f"
      },
      "geometry": { "type": "Point", "coordinates": [121.507, 25.0838] }
    },
    {
      "type": "Feature",
      "properties": {
        "addr": "\u81fa\u5317\u5e02\u5357\u6e2f\u5340\u65b0\u5bcc\u91cc\u5bcc\u5eb7\u88571\u5df724\u865f"
      },
      "geometry": { "type": "Point", "coordinates": [121.6187, 25.0541] }
    },
    {
      "type": "Feature",
      "properties": {
        "addr": "\u81fa\u5317\u5e02\u5927\u5b89\u5340\u8eca\u5c64\u91cc\u81fa\u5317\u5e02\u5927\u5b89\u5340\u5e02\u6c11\u5927\u90534\u6bb5190\u865f\u5730\u4e0b\u4e00\u6a13"
      },
      "geometry": { "type": "Point", "coordinates": [121.5543, 25.0442] }
    },
    {
      "type": "Feature",
      "properties": {
        "addr": "\u81fa\u5317\u5e02\u677e\u5c71\u5340\u7cbe\u5fe0\u91cc\u81fa\u5317\u5e02\u677e\u5c71\u5340\u6566\u5316\u5317\u8def199\u5df75\u865f\u5730\u4e0b1\u6a13"
      },
      "geometry": { "type": "Point", "coordinates": [121.5515, 25.057] }
    },
    {
      "type": "Feature",
      "properties": {
        "addr": "\u81fa\u5317\u5e02\u6587\u5c71\u5340\u6a1f\u6587\u91cc\u5fe0\u9806\u8857\u4e00\u6bb54\u865f"
      },
      "geometry": { "type": "Point", "coordinates": [121.5576, 24.9837] }
    },
    {
      "type": "Feature",
      "properties": {
        "addr": "\u81fa\u5317\u5e02\u6587\u5c71\u5340\u6a1f\u6797\u91cc\u8f9b\u4ea5\u8def\u4e03\u6bb567\u865f"
      },
      "geometry": { "type": "Point", "coordinates": [121.5547, 24.9834] }
    },
    {
      "type": "Feature",
      "properties": {
        "addr": "\u81fa\u5317\u5e02\u677e\u5c71\u5340\u6148\u7950\u91cc\u81fa\u5317\u5e02\u677e\u5c71\u5340\u516b\u5fb7\u8def4\u6bb5568\u865f"
      },
      "geometry": { "type": "Point", "coordinates": [121.572, 25.0497] }
    },
    {
      "type": "Feature",
      "properties": {
        "addr": "\u81fa\u5317\u5e02\u5927\u5b89\u5340\u5bcc\u6c11\u91cc\u53f0\u5317\u5e02\u5927\u5b89\u5340\u548c\u5e73\u6771\u8def2\u6bb5311\u5df729\u865f\u5730\u4e0b1\u6a13"
      },
      "geometry": { "type": "Point", "coordinates": [121.5453, 25.0255] }
    },
    {
      "type": "Feature",
      "properties": {
        "addr": "\u81fa\u5317\u5e02\u4e2d\u5c71\u5340\u4e0b\u57e4\u91cc\u6c11\u6b0a\u6771\u8def\u4e09\u6bb51\u865f"
      },
      "geometry": { "type": "Point", "coordinates": [121.541, 25.0626] }
    },
    {
      "type": "Feature",
      "properties": {
        "addr": "\u81fa\u5317\u5e02\u4fe1\u7fa9\u5340\u4e2d\u884c\u91cc\u798f\u5fb7\u8857221\u5df715\u865f"
      },
      "geometry": { "type": "Point", "coordinates": [121.5853, 25.0357] }
    },
    {
      "type": "Feature",
      "properties": {
        "addr": "\u81fa\u5317\u5e02\u5167\u6e56\u5340\u6e56\u6ff1\u91cc\u5167\u6e56\u8def\u4e8c\u6bb5175\u865f,\u570b\u7acb\u53f0\u7063\u6232\u66f2\u5b78\u9662\u65c1."
      },
      "geometry": { "type": "Point", "coordinates": [121.5858, 25.0812] }
    },
    {
      "type": "Feature",
      "properties": {
        "addr": "\u81fa\u5317\u5e02\u5167\u6e56\u5340\u5167\u6e56\u91cc\u91d1\u9f8d\u8def100\u865f"
      },
      "geometry": { "type": "Point", "coordinates": [121.591, 25.0853] }
    },
    {
      "type": "Feature",
      "properties": {
        "addr": "\u81fa\u5317\u5e02\u58eb\u6797\u5340\u798f\u5b89\u91cc\u5ef6\u5e73\u5317\u8def\u4e03\u6bb5250\u865f"
      },
      "geometry": { "type": "Point", "coordinates": [121.4874, 25.1034] }
    },
    {
      "type": "Feature",
      "properties": {
        "addr": "\u81fa\u5317\u5e02\u58eb\u6797\u5340\u798f\u6797\u91cc\u798f\u6797\u8def2\u865f(\u4e2d\u5c71\u5317\u8def\u8207\u798f\u6797\u8def\u4ea4\u53c9\u53e3)."
      },
      "geometry": { "type": "Point", "coordinates": [121.5322, 25.0966] }
    },
    {
      "type": "Feature",
      "properties": {
        "addr": "\u81fa\u5317\u5e02\u58eb\u6797\u5340\u798f\u5fd7\u91cc\u798f\u5fd7\u8def75\u865f"
      },
      "geometry": { "type": "Point", "coordinates": [121.5297, 25.0987] }
    },
    {
      "type": "Feature",
      "properties": {
        "addr": "\u81fa\u5317\u5e02\u842c\u83ef\u5340\u798f\u661f\u91cc\u4e2d\u83ef\u8def\u4e00\u6bb566\u865f"
      },
      "geometry": { "type": "Point", "coordinates": [121.5089, 25.0463] }
    },
    {
      "type": "Feature",
      "properties": {
        "addr": "\u81fa\u5317\u5e02\u4fe1\u7fa9\u5340\u4e2d\u884c\u91cc\u798f\u5fb7\u8857253\u865f"
      },
      "geometry": { "type": "Point", "coordinates": [121.5865, 25.0389] }
    },
    {
      "type": "Feature",
      "properties": {
        "addr": "\u81fa\u5317\u5e02\u58eb\u6797\u5340\u798f\u5fb7\u91cc\u58eb\u5546\u8def1\u865f"
      },
      "geometry": { "type": "Point", "coordinates": [121.5215, 25.0893] }
    },
    {
      "type": "Feature",
      "properties": {
        "addr": "\u81fa\u5317\u5e02\u5927\u540c\u5340\u84ec\u840a\u91cc\u5927\u9f8d\u885751\u865f"
      },
      "geometry": { "type": "Point", "coordinates": [121.5161, 25.0648] }
    },
    {
      "type": "Feature",
      "properties": {
        "addr": "\u81fa\u5317\u5e02\u5927\u5b89\u5340\u81e5\u9f8d\u91cc\u8f9b\u4ea5\u8def\u4e09\u6bb555\u865f"
      },
      "geometry": { "type": "Point", "coordinates": [121.546, 25.0204] }
    },
    {
      "type": "Feature",
      "properties": {
        "addr": "\u81fa\u5317\u5e02\u4e2d\u5c71\u5340\u6c11\u5b89\u91cc\u4e2d\u5c71\u5317\u8def\u4e8c\u6bb544\u5df72\u865f"
      },
      "geometry": { "type": "Point", "coordinates": [121.5216, 25.0548] }
    },
    {
      "type": "Feature",
      "properties": {
        "addr": "\u81fa\u5317\u5e02\u4e2d\u6b63\u5340\u6771\u9580\u91cc\u4fe1\u7fa9\u8def\u4e00\u6bb51\u865f"
      },
      "geometry": { "type": "Point", "coordinates": [121.5192, 25.0383] }
    },
    {
      "type": "Feature",
      "properties": {
        "addr": "\u81fa\u5317\u5e02\u5167\u6e56\u5340\u6e2f\u5898\u91cc\u6d32\u5b50\u885712\u865f"
      },
      "geometry": { "type": "Point", "coordinates": [121.5751, 25.0782] }
    },
    {
      "type": "Feature",
      "properties": {
        "addr": "\u81fa\u5317\u5e02\u6587\u5c71\u5340\u8208\u5f97\u91cc\u8208\u9686\u8def\u4e09\u6bb5222\u865f"
      },
      "geometry": { "type": "Point", "coordinates": [121.5597, 24.997] }
    },
    {
      "type": "Feature",
      "properties": {
        "addr": "\u81fa\u5317\u5e02\u5317\u6295\u5340\u5409\u5229\u91cc\u77f3\u724c\u8def\u4e00\u6bb539\u5df7100\u865f"
      },
      "geometry": { "type": "Point", "coordinates": [121.5097, 25.1163] }
    },
    {
      "type": "Feature",
      "properties": {
        "addr": "\u81fa\u5317\u5e02\u4e2d\u5c71\u5340\u5713\u5c71\u91cc\u81fa\u5317\u5e02\u4e2d\u5c71\u5340\u4e2d\u5c71\u5317\u8def181\u865f"
      },
      "geometry": { "type": "Point", "coordinates": [121.5336, 25.0643] }
    },
    {
      "type": "Feature",
      "properties": {
        "addr": "\u81fa\u5317\u5e02\u6587\u5c71\u5340\u6a1f\u65b0\u91cc\u81fa\u5317\u5e02\u6587\u5c71\u5340\u4e00\u58fd\u885722\u865f5-8\u6a13"
      },
      "geometry": { "type": "Point", "coordinates": [121.5563, 24.9797] }
    },
    {
      "type": "Feature",
      "properties": {
        "addr": "\u81fa\u5317\u5e02\u677e\u5c71\u5340\u4e09\u6c11\u91cc\u81fa\u5317\u5e02\u677e\u5c71\u5340\u6c11\u751f\u6771\u8def\u4e94\u6bb5163-1\u865f5\u30016\u6a13"
      },
      "geometry": { "type": "Point", "coordinates": [121.5628, 25.0593] }
    },
    {
      "type": "Feature",
      "properties": {
        "addr": "\u81fa\u5317\u5e02\u5927\u540c\u5340\u8001\u5e2b\u91cc\u81fa\u5317\u5e02\u5927\u540c\u5340\u91cd\u6176\u5317\u8def\u4e09\u6bb5318\u865f"
      },
      "geometry": { "type": "Point", "coordinates": [121.5136, 25.0743] }
    },
    {
      "type": "Feature",
      "properties": {
        "addr": "\u81fa\u5317\u5e02\u4e2d\u5c71\u5340\u5927\u76f4\u91cc\u81fa\u5317\u5e02\u4e2d\u5c71\u5340\u5927\u76f4\u885725\u865f3-5\u6a13"
      },
      "geometry": { "type": "Point", "coordinates": [121.5466, 25.0819] }
    },
    {
      "type": "Feature",
      "properties": {
        "addr": "\u81fa\u5317\u5e02\u4e2d\u5c71\u5340\u884c\u653f\u91cc\u81fa\u5317\u5e02\u4e2d\u5c71\u5340\u677e\u6c5f\u8def367\u865f8\u6a13"
      },
      "geometry": { "type": "Point", "coordinates": [121.5335, 25.0644] }
    },
    {
      "type": "Feature",
      "properties": {
        "addr": "\u81fa\u5317\u5e02\u677e\u5c71\u5340\u4e2d\u6b63\u91cc\u81fa\u5317\u5e02\u677e\u5c71\u5340\u9577\u5b89\u6771\u8def\u4e8c\u6bb5229\u865f7-10\u6a13"
      },
      "geometry": { "type": "Point", "coordinates": [121.5459, 25.0484] }
    },
    {
      "type": "Feature",
      "properties": {
        "addr": "\u81fa\u5317\u5e02\u5167\u6e56\u5340\u6e56\u8208\u91cc\u81fa\u5317\u5e02\u5167\u6e56\u5340\u6c11\u6b0a\u6771\u8def\u516d\u6bb599\u865f6\u6a13"
      },
      "geometry": { "type": "Point", "coordinates": [121.589, 25.0693] }
    },
    {
      "type": "Feature",
      "properties": {
        "addr": "\u81fa\u5317\u5e02\u4fe1\u7fa9\u5340\u516d\u5408\u91cc\u81fa\u5317\u5e02\u4fe1\u7fa9\u5340\u677e\u4ec1\u8def240\u5df719\u865f3-5\u6a13"
      },
      "geometry": { "type": "Point", "coordinates": [121.5688, 25.0244] }
    },
    {
      "type": "Feature",
      "properties": {
        "addr": "\u81fa\u5317\u5e02\u58eb\u6797\u5340\u5929\u5c71\u91cc\u81fa\u5317\u5e02\u58eb\u6797\u5340\u4e2d\u5c71\u5317\u8def\u4e03\u6bb5154\u5df76\u865f3\u30014\u6a13"
      },
      "geometry": { "type": "Point", "coordinates": [121.533, 25.124] }
    },
    {
      "type": "Feature",
      "properties": {
        "addr": "\u81fa\u5317\u5e02\u6587\u5c71\u5340\u8208\u696d\u91cc\u81fa\u5317\u5e02\u6587\u5c71\u5340\u8208\u9686\u8def\u4e8c\u6bb5160\u865f7-9\u6a13"
      },
      "geometry": { "type": "Point", "coordinates": [121.5513, 25.0016] }
    },
    {
      "type": "Feature",
      "properties": {
        "addr": "\u81fa\u5317\u5e02\u6587\u5c71\u5340\u6728\u65b0\u91cc\u81fa\u5317\u5e02\u6587\u5c71\u5340\u4fdd\u5100\u8def13\u5df73\u865f3\u30014\u6a13"
      },
      "geometry": { "type": "Point", "coordinates": [121.5692, 24.9885] }
    },
    {
      "type": "Feature",
      "properties": {
        "addr": "\u81fa\u5317\u5e02\u4e2d\u6b63\u5340\u9802\u6771\u91cc\u81fa\u5317\u5e02\u4e2d\u6b63\u5340\u6c40\u5dde\u8def\u4e8c\u6bb5265\u865f"
      },
      "geometry": { "type": "Point", "coordinates": [121.5238, 25.0226] }
    },
    {
      "type": "Feature",
      "properties": {
        "addr": "\u81fa\u5317\u5e02\u5317\u6295\u5340\u6eab\u6cc9\u91cc\u81fa\u5317\u5e02\u5317\u6295\u5340\u5149\u660e\u8def251\u865f"
      },
      "geometry": { "type": "Point", "coordinates": [121.5063, 25.1364] }
    },
    {
      "type": "Feature",
      "properties": {
        "addr": "\u81fa\u5317\u5e02\u677e\u5c71\u5340\u7cbe\u5fe0\u91cc\u81fa\u5317\u5e02\u677e\u5c71\u5340\u6566\u5316\u5317\u8def199\u5df75\u865f4\u30015\u6a13"
      },
      "geometry": { "type": "Point", "coordinates": [121.5515, 25.057] }
    },
    {
      "type": "Feature",
      "properties": {
        "addr": "\u81fa\u5317\u5e02\u4fe1\u7fa9\u5340\u9577\u6625\u91cc\u81fa\u5317\u5e02\u4fe1\u7fa9\u5340\u677e\u5c71\u8def294\u865f3-4\u6a13"
      },
      "geometry": { "type": "Point", "coordinates": [121.5776, 25.0431] }
    },
    {
      "type": "Feature",
      "properties": {
        "addr": "\u81fa\u5317\u5e02\u5317\u6295\u5340\u69ae\u83ef\u91cc\u81fa\u5317\u5e02\u5317\u6295\u5340\u660e\u5fb7\u8def208\u5df75\u865f3-10\u6a13"
      },
      "geometry": { "type": "Point", "coordinates": [121.5227, 25.1132] }
    },
    {
      "type": "Feature",
      "properties": {
        "addr": "\u81fa\u5317\u5e02\u5317\u6295\u5340\u7acb\u8fb2\u91cc\u81fa\u5317\u5e02\u5317\u6295\u5340\u7acb\u8fb2\u8857\u4e00\u6bb5366\u865f5-8\u6a13"
      },
      "geometry": { "type": "Point", "coordinates": [121.5084, 25.1193] }
    },
    {
      "type": "Feature",
      "properties": {
        "addr": "\u81fa\u5317\u5e02\u5167\u6e56\u5340\u897f\u6e56\u91cc\u81fa\u5317\u5e02\u5167\u6e56\u5340\u5167\u6e56\u8def1\u6bb5285\u5df766\u865f1-2\u6a13"
      },
      "geometry": { "type": "Point", "coordinates": [121.5666, 25.0848] }
    },
    {
      "type": "Feature",
      "properties": {
        "addr": "\u81fa\u5317\u5e02\u5167\u6e56\u5340\u6e2f\u5898\u91cc\u81fa\u5317\u5e02\u5167\u6e56\u5340\u5167\u6e56\u8def\u4e00\u6bb5594\u865f"
      },
      "geometry": { "type": "Point", "coordinates": [121.5773, 25.0788] }
    },
    {
      "type": "Feature",
      "properties": {
        "addr": "\u81fa\u5317\u5e02\u842c\u83ef\u5340\u9802\u78a9\u91cc\u81fa\u5317\u5e02\u842c\u83ef\u5340\u8208\u5be7\u88576\u865f3-6\u6a13"
      },
      "geometry": { "type": "Point", "coordinates": [121.5, 25.0323] }
    },
    {
      "type": "Feature",
      "properties": {
        "addr": "\u81fa\u5317\u5e02\u58eb\u6797\u5340\u798f\u6797\u91cc\u81fa\u5317\u5e02\u58eb\u6797\u5340\u4e2d\u6b63\u8def15\u865f"
      },
      "geometry": { "type": "Point", "coordinates": [121.5306, 25.0958] }
    },
    {
      "type": "Feature",
      "properties": {
        "addr": "\u81fa\u5317\u5e02\u5927\u540c\u5340\u5ef6\u5e73\u91cc\u81fa\u5317\u5e02\u5927\u540c\u5340\u4fdd\u5b89\u885747\u865f"
      },
      "geometry": { "type": "Point", "coordinates": [121.5121, 25.0593] }
    },
    {
      "type": "Feature",
      "properties": {
        "addr": "\u81fa\u5317\u5e02\u5167\u6e56\u5340\u4e94\u5206\u91cc\u81fa\u5317\u5e02\u5167\u6e56\u5340\u4e94\u5206\u88576\u865f"
      },
      "geometry": { "type": "Point", "coordinates": [121.6126, 25.0674] }
    },
    {
      "type": "Feature",
      "properties": {
        "addr": "\u81fa\u5317\u5e02\u677e\u5c71\u5340\u6148\u7950\u91cc\u81fa\u5317\u5e02\u677e\u5c71\u5340\u516b\u5fb7\u8def\u56db\u6bb5688\u865f5-8\u6a13"
      },
      "geometry": { "type": "Point", "coordinates": [121.5769, 25.0498] }
    },
    {
      "type": "Feature",
      "properties": {
        "addr": "\u81fa\u5317\u5e02\u4e2d\u5c71\u5340\u6c11\u5b89\u91cc\u81fa\u5317\u5e02\u4e2d\u5c71\u5340\u9577\u5b89\u897f\u8def3\u865f4\u6a13"
      },
      "geometry": { "type": "Point", "coordinates": [121.5212, 25.0502] }
    },
    {
      "type": "Feature",
      "properties": {
        "addr": "\u81fa\u5317\u5e02\u5357\u6e2f\u5340\u5357\u6e2f\u91cc\u81fa\u5317\u5e02\u5357\u6e2f\u5340\u5357\u6e2f\u8def\u4e00\u6bb5350\u865f"
      },
      "geometry": { "type": "Point", "coordinates": [121.6083, 25.0549] }
    },
    {
      "type": "Feature",
      "properties": {
        "addr": "\u81fa\u5317\u5e02\u4e2d\u6b63\u5340\u5e78\u5e02\u91cc\u81fa\u5317\u5e02\u4e2d\u6b63\u5340\u6fdf\u5357\u8def\u4e8c\u6bb546\u865f3\u6a13"
      },
      "geometry": { "type": "Point", "coordinates": [121.5309, 25.0403] }
    },
    {
      "type": "Feature",
      "properties": {
        "addr": "\u81fa\u5317\u5e02\u5927\u540c\u5340\u661f\u660e\u91cc\u81fa\u5317\u5e02\u5927\u540c\u5340\u6c11\u751f\u897f\u8def198-20\u865f4\u6a13"
      },
      "geometry": { "type": "Point", "coordinates": [121.5161, 25.0569] }
    },
    {
      "type": "Feature",
      "properties": {
        "addr": "\u81fa\u5317\u5e02\u677e\u5c71\u5340\u4e2d\u83ef\u91cc\u81fa\u5317\u5e02\u677e\u5c71\u5340\u6566\u5316\u5317\u8def155\u5df776\u865f"
      },
      "geometry": { "type": "Point", "coordinates": [121.5515, 25.0543] }
    },
    {
      "type": "Feature",
      "properties": {
        "addr": "\u81fa\u5317\u5e02\u5317\u6295\u5340\u5947\u5ca9\u91cc\u81fa\u5317\u5e02\u5317\u6295\u5340\u516c\u9928\u8def198\u865f3\u6a13"
      },
      "geometry": { "type": "Point", "coordinates": [121.5072, 25.128] }
    },
    {
      "type": "Feature",
      "properties": {
        "addr": "\u81fa\u5317\u5e02\u6587\u5c71\u5340\u842c\u5e74\u91cc\u81fa\u5317\u5e02\u6587\u5c71\u5340\u7f85\u65af\u798f\u8def\u4e94\u6bb5176\u5df750\u865f2-4\u6a13"
      },
      "geometry": { "type": "Point", "coordinates": [121.5366, 25.0039] }
    },
    {
      "type": "Feature",
      "properties": {
        "addr": "\u81fa\u5317\u5e02\u6587\u5c71\u5340\u666f\u884c\u91cc\u81fa\u5317\u5e02\u6587\u5c71\u5340\u666f\u5f8c\u8857151\u865f5-10\u6a13"
      },
      "geometry": { "type": "Point", "coordinates": [121.542, 24.9901] }
    },
    {
      "type": "Feature",
      "properties": {
        "addr": "\u81fa\u5317\u5e02\u842c\u83ef\u5340\u65e5\u5584\u91cc\u81fa\u5317\u5e02\u842c\u83ef\u5340\u6771\u5712\u885719\u865f5-7\u6a13"
      },
      "geometry": { "type": "Point", "coordinates": [121.4979, 25.0232] }
    },
    {
      "type": "Feature",
      "properties": {
        "addr": "\u81fa\u5317\u5e02\u6587\u5c71\u5340\u842c\u8208\u91cc\u81fa\u5317\u5e02\u6587\u5c71\u5340\u842c\u58fd\u8def27\u865f4-5\u6a13"
      },
      "geometry": { "type": "Point", "coordinates": [121.5765, 24.9887] }
    },
    {
      "type": "Feature",
      "properties": {
        "addr": "\u81fa\u5317\u5e02\u58eb\u6797\u5340\u798f\u9806\u91cc\u81fa\u5317\u5e02\u58eb\u6797\u5340\u5ef6\u5e73\u5317\u8def\u4e94\u6bb5136\u5df71\u865f3-9\u6a13"
      },
      "geometry": { "type": "Point", "coordinates": [121.5111, 25.0823] }
    },
    {
      "type": "Feature",
      "properties": {
        "addr": "\u81fa\u5317\u5e02\u5927\u5b89\u5340\u81e5\u9f8d\u91cc\u81fa\u5317\u5e02\u5927\u5b89\u5340\u8f9b\u4ea5\u8def\u4e09\u6bb511\u865f3\u6a13"
      },
      "geometry": { "type": "Point", "coordinates": [121.5441, 25.0216] }
    },
    {
      "type": "Feature",
      "properties": {
        "addr": "\u81fa\u5317\u5e02\u5317\u6295\u5340\u7a3b\u9999\u91cc\u81fa\u5317\u5e02\u5317\u6295\u5340\u7a3b\u9999\u8def81\u865f7-9\u6a13"
      },
      "geometry": { "type": "Point", "coordinates": [121.4893, 25.1409] }
    },
    {
      "type": "Feature",
      "properties": {
        "addr": "\u81fa\u5317\u5e02\u5927\u5b89\u5340\u65b0\u9f8d\u91cc\u81fa\u5317\u5e02\u5927\u5b89\u5340\u5efa\u570b\u5357\u8def\u4e8c\u6bb5125\u865f"
      },
      "geometry": { "type": "Point", "coordinates": [121.5382, 25.0291] }
    },
    {
      "type": "Feature",
      "properties": {
        "addr": "\u81fa\u5317\u5e02\u5357\u6e2f\u5340\u820a\u838a\u91cc\u81fa\u5317\u5e02\u5357\u6e2f\u5340\u820a\u838a\u8857\u4e00\u6bb591\u5df711\u865f2-5\u6a13"
      },
      "geometry": { "type": "Point", "coordinates": [121.6195, 25.0413] }
    },
    {
      "type": "Feature",
      "properties": {
        "addr": "\u81fa\u5317\u5e02\u677e\u5c71\u5340\u4e2d\u6b63\u91cc\u6566\u5316\u5317\u8def1\u865f"
      },
      "geometry": { "type": "Point", "coordinates": [121.5501, 25.0489] }
    },
    {
      "type": "Feature",
      "properties": {
        "addr": "\u81fa\u5317\u5e02\u4fe1\u7fa9\u5340\u4e09\u5f35\u91cc\u677e\u52e4\u8def100\u865f"
      },
      "geometry": { "type": "Point", "coordinates": [121.5134, 25.0291] }
    },
    {
      "type": "Feature",
      "properties": {
        "addr": "\u81fa\u5317\u5e02\u5357\u6e2f\u5340\u5408\u6210\u91cc\u7389\u6210\u885769\u865f"
      },
      "geometry": { "type": "Point", "coordinates": [121.5815, 25.0488] }
    },
    {
      "type": "Feature",
      "properties": {
        "addr": "\u81fa\u5317\u5e02\u5357\u6e2f\u5340\u4e2d\u5357\u91cc\u5fe0\u5b5d\u6771\u8def\u4e03\u6bb5382\u865f"
      },
      "geometry": { "type": "Point", "coordinates": [121.6073, 25.0519] }
    },
    {
      "type": "Feature",
      "properties": {
        "addr": "\u81fa\u5317\u5e02\u842c\u83ef\u5340\u798f\u661f\u91cc\u897f\u5be7\u5357\u8def6\u4e4b1\u865f"
      },
      "geometry": { "type": "Point", "coordinates": [121.507, 25.0471] }
    },
    {
      "type": "Feature",
      "properties": {
        "addr": "\u81fa\u5317\u5e02\u677e\u5c71\u5340\u4e2d\u6b63\u91cc\u6566\u5316\u5317\u8def3\u865f"
      },
      "geometry": { "type": "Point", "coordinates": [121.5495, 25.0489] }
    },
    {
      "type": "Feature",
      "properties": {
        "addr": "\u81fa\u5317\u5e02\u58eb\u6797\u5340\u7fa9\u4fe1\u91cc\u53f0\u5317\u5e02\u58eb\u6797\u5340\u528d\u6f6d\u8def1\u865f"
      },
      "geometry": { "type": "Point", "coordinates": [121.5242, 25.0846] }
    },
    {
      "type": "Feature",
      "properties": {
        "addr": "\u81fa\u5317\u5e02\u5357\u6e2f\u5340\u6771\u660e\u91cc\u81fa\u5317\u5e02\u5357\u6e2f\u5340\u5e02\u6c11\u5927\u9053\u516b\u6bb599\u865f"
      },
      "geometry": { "type": "Point", "coordinates": [121.5985, 25.0526] }
    },
    {
      "type": "Feature",
      "properties": {
        "addr": "\u81fa\u5317\u5e02\u5927\u540c\u5340\u5efa\u660e\u91cc\u81fa\u5317\u5e02\u5927\u540c\u5340\u5e02\u6c11\u5927\u90531\u6bb5209\u865f"
      },
      "geometry": { "type": "Point", "coordinates": [121.5184, 25.0489] }
    },
    {
      "type": "Feature",
      "properties": {
        "addr": "\u81fa\u5317\u5e02\u677e\u5c71\u5340\u4e2d\u6b63\u91cc\u5357\u4eac\u6771\u8def\u56db\u6bb510\u865f"
      },
      "geometry": { "type": "Point", "coordinates": [121.552, 25.0513] }
    },
    {
      "type": "Feature",
      "properties": {
        "addr": "\u81fa\u5317\u5e02\u5927\u5b89\u5340\u5b78\u5e9c\u91cc\u7f85\u65af\u8914\u8def\u56db\u6bb521\u865f"
      },
      "geometry": { "type": "Point", "coordinates": [121.5346, 25.0265] }
    },
    {
      "type": "Feature",
      "properties": {
        "addr": "\u81fa\u5317\u5e02\u58eb\u6797\u5340\u660e\u52dd\u91cc\u901a\u6cb3\u885716\u865f"
      },
      "geometry": { "type": "Point", "coordinates": [121.523, 25.0799] }
    },
    {
      "type": "Feature",
      "properties": {
        "addr": "\u81fa\u5317\u5e02\u5167\u6e56\u5340\u6a02\u5eb7\u91cc\u81fa\u5317\u5e02\u5167\u6e56\u5340\u5eb7\u6a02\u8857150\u865f6\u6a13\u4e4b\u4e00"
      },
      "geometry": { "type": "Point", "coordinates": [121.6192, 25.0726] }
    },
    {
      "type": "Feature",
      "properties": {
        "addr": "\u81fa\u5317\u5e02\u6587\u5c71\u5340\u6a1f\u65b0\u91cc\u81fa\u5317\u5e02\u6587\u5c71\u5340\u4e00\u58fd\u885722\u865f9~10\u6a13"
      },
      "geometry": { "type": "Point", "coordinates": [121.5563, 24.9797] }
    },
    {
      "type": "Feature",
      "properties": {
        "addr": "\u81fa\u5317\u5e02\u6587\u5c71\u5340\u6a1f\u8173\u91cc\u81fa\u5317\u5e02\u6587\u5c71\u5340\u6046\u5149\u885745\u865f7F~8F"
      },
      "geometry": { "type": "Point", "coordinates": [121.5673, 24.9824] }
    },
    {
      "type": "Feature",
      "properties": {
        "addr": "\u81fa\u5317\u5e02\u5167\u6e56\u5340\u9031\u7f8e\u91cc\u884c\u5584\u8def179\u865f"
      },
      "geometry": { "type": "Point", "coordinates": [121.5812, 25.0591] }
    },
    {
      "type": "Feature",
      "properties": {
        "addr": "\u81fa\u5317\u5e02\u5927\u540c\u5340\u661f\u660e\u91cc\u5be7\u590f\u8def35\u865f"
      },
      "geometry": { "type": "Point", "coordinates": [121.5156, 25.0565] }
    },
    {
      "type": "Feature",
      "properties": {
        "addr": "\u81fa\u5317\u5e02\u6587\u5c71\u5340\u8208\u5149\u91cc\u8208\u9686\u8def\u4e09\u6bb5125\u5df76\u865f"
      },
      "geometry": { "type": "Point", "coordinates": [121.5587, 24.9988] }
    },
    {
      "type": "Feature",
      "properties": {
        "addr": "\u81fa\u5317\u5e02\u6587\u5c71\u5340\u8208\u696d\u91cc\u8208\u9686\u8def\u4e8c\u6bb5154\u5df7\u8207\u4ed9\u5ca9\u8def\u4ea4\u53c9\u53e3."
      },
      "geometry": { "type": "Point", "coordinates": [121.5515, 25.0009] }
    },
    {
      "type": "Feature",
      "properties": {
        "addr": "\u81fa\u5317\u5e02\u6587\u5c71\u5340\u8208\u8c50\u91cc\u81fa\u5317\u5e02\u6587\u5c71\u5340\u8208\u9686\u8def\u4e8c\u6bb597\u865f"
      },
      "geometry": { "type": "Point", "coordinates": [121.5475, 24.9996] }
    },
    {
      "type": "Feature",
      "properties": {
        "addr": "\u81fa\u5317\u5e02\u6587\u5c71\u5340\u8208\u798f\u91cc\u81fa\u5317\u5e02\u6587\u5c71\u5340\u8208\u9686\u8def\u4e8c\u6bb597\u865f4\u6a13"
      },
      "geometry": { "type": "Point", "coordinates": [121.5475, 24.9996] }
    },
    {
      "type": "Feature",
      "properties": {
        "addr": "\u81fa\u5317\u5e02\u6587\u5c71\u5340\u8208\u65fa\u91cc\u798f\u8208\u8def2\u865f"
      },
      "geometry": { "type": "Point", "coordinates": [121.552, 25.0023] }
    },
    {
      "type": "Feature",
      "properties": {
        "addr": "\u81fa\u5317\u5e02\u4fe1\u7fa9\u5340\u96c5\u7965\u91cc\u57fa\u9686\u8def\u4e00\u6bb583\u5df79\u865f"
      },
      "geometry": { "type": "Point", "coordinates": [121.5701, 25.0468] }
    },
    {
      "type": "Feature",
      "properties": {
        "addr": "\u81fa\u5317\u5e02\u4fe1\u7fa9\u5340\u5b89\u5eb7\u91cc\u677e\u5fb7\u8def168\u5df715\u865f"
      },
      "geometry": { "type": "Point", "coordinates": [121.5724, 25.0364] }
    },
    {
      "type": "Feature",
      "properties": {
        "addr": "\u81fa\u5317\u5e02\u6587\u5c71\u5340\u8208\u696d\u91cc\u81fa\u5317\u5e02\u6587\u5c71\u5340\u8208\u9686\u8def\u4e8c\u6bb5160\u865f10\u6a13"
      },
      "geometry": { "type": "Point", "coordinates": [121.5513, 25.0016] }
    },
    {
      "type": "Feature",
      "properties": {
        "addr": "\u81fa\u5317\u5e02\u6587\u5c71\u5340\u8208\u65fa\u91cc\u798f\u8208\u8def80\u865f"
      },
      "geometry": { "type": "Point", "coordinates": [121.5498, 25.0049] }
    },
    {
      "type": "Feature",
      "properties": {
        "addr": "\u81fa\u5317\u5e02\u6587\u5c71\u5340\u8208\u90a6\u91cc\u8208\u9686\u8def\u4e8c\u6bb5235\u865f"
      },
      "geometry": { "type": "Point", "coordinates": [121.5509, 25.0017] }
    },
    {
      "type": "Feature",
      "properties": {
        "addr": "\u81fa\u5317\u5e02\u6587\u5c71\u5340\u8208\u8c50\u91cc\u81fa\u5317\u5e02\u6587\u5c71\u5340\u8208\u9686\u8def\u4e8c\u6bb595\u5df78\u865f7~9\u6a13"
      },
      "geometry": { "type": "Point", "coordinates": [121.5469, 25.0] }
    },
    {
      "type": "Feature",
      "properties": {
        "addr": "\u81fa\u5317\u5e02\u4e2d\u6b63\u5340\u87a2\u96ea\u91cc\u8a54\u5b89\u885729\u865f"
      },
      "geometry": { "type": "Point", "coordinates": [121.5145, 25.0249] }
    },
    {
      "type": "Feature",
      "properties": {
        "addr": "\u81fa\u5317\u5e02\u4e2d\u6b63\u5340\u6797\u8208\u91cc\u6c40\u5dde\u8def\u4e09\u6bb5\u56db\u865f"
      },
      "geometry": { "type": "Point", "coordinates": [121.5264, 25.0191] }
    },
    {
      "type": "Feature",
      "properties": {
        "addr": "\u81fa\u5317\u5e02\u5927\u5b89\u5340\u9326\u5b89\u91cc\u81fa\u5317\u5e02\u5927\u5b89\u5340\u6c38\u5eb7\u885760\u865f"
      },
      "geometry": { "type": "Point", "coordinates": [121.5294, 25.0285] }
    },
    {
      "type": "Feature",
      "properties": {
        "addr": "\u81fa\u5317\u5e02\u842c\u83ef\u5340\u7cd6\u5ecd\u91cc\u81fa\u5317\u5e02\u842c\u83ef\u5340\u897f\u5712\u8def\u4e00\u6bb5145\u865f"
      },
      "geometry": { "type": "Point", "coordinates": [121.4996, 25.0369] }
    },
    {
      "type": "Feature",
      "properties": {
        "addr": "\u81fa\u5317\u5e02\u842c\u83ef\u5340\u9752\u5c71\u91cc\u548c\u5e73\u897f\u8def\u4e09\u6bb5235\u865f"
      },
      "geometry": { "type": "Point", "coordinates": [121.4962, 25.0356] }
    },
    {
      "type": "Feature",
      "properties": {
        "addr": "\u81fa\u5317\u5e02\u842c\u83ef\u5340\u5bcc\u798f\u91cc\u5357\u5be7\u8def46\u865f"
      },
      "geometry": { "type": "Point", "coordinates": [121.5046, 25.036] }
    },