{
  "type": "FeatureCollection",
  "crs": {
    "type": "name",
    "properties": { "name": "urn:ogc:def:crs:OGC:1.3:CRS84" }
  },
  "features": [
    {
      "type": "Feature",
      "properties": {
        "addr": "\u53f0\u5317\u5e02\u4e2d\u5c71\u5340\u5fe0\u5b5d\u6771\u8def1\u6bb585\u865f"
      },
      "geometry": { "type": "Point", "coordinates": [121.5267, 25.0442] }
    },
    {
      "type": "Feature",
      "properties": {
        "addr": "\u53f0\u5317\u5e02\u4e2d\u5c71\u5340\u5317\u5e73\u6771\u8def28\u865f2\u6a13"
      },
      "geometry": { "type": "Point", "coordinates": [121.5254, 25.0458] }
    },
    {
      "type": "Feature",
      "properties": {
        "addr": "\u53f0\u5317\u5e02\u4e2d\u5c71\u5340\u5fe0\u5b5d\u6771\u8def1\u6bb512\u865f"
      },
      "geometry": { "type": "Point", "coordinates": [121.5221, 25.0449] }
    },
    {
      "type": "Feature",
      "properties": {
        "addr": "\u53f0\u5317\u5e02\u4e2d\u5c71\u5340\u9f4a\u6771\u885753\u5df72\u865f"
      },
      "geometry": { "type": "Point", "coordinates": [121.5279, 25.0416] }
    },
    {
      "type": "Feature",
      "properties": {
        "addr": "\u53f0\u5317\u5e02\u4e2d\u5c71\u5340\u4e2d\u5c71\u5357\u8def7\u865f"
      },
      "geometry": { "type": "Point", "coordinates": [121.5186, 25.0408] }
    },
    {
      "type": "Feature",
      "properties": {
        "addr": "\u53f0\u5317\u5e02\u4e2d\u5c71\u5340\u4fe1\u7fa9\u8def2\u6bb579\u865f"
      },
      "geometry": { "type": "Point", "coordinates": [121.5266, 25.0345] }
    },
    {
      "type": "Feature",
      "properties": {
        "addr": "\u53f0\u5317\u5e02\u4e2d\u5c71\u5340\u5fe0\u5b5d\u6771\u8def1\u6bb583\u865f"
      },
      "geometry": { "type": "Point", "coordinates": [121.5264, 25.0443] }
    },
    {
      "type": "Feature",
      "properties": {
        "addr": "\u53f0\u5317\u5e02\u4e2d\u5c71\u5340\u7d39\u8208\u5357\u8857\u8207\u4ec1\u611b\u8def1\u6bb5\u897f\u5357\u5074"
      },
      "geometry": { "type": "Point", "coordinates": [121.5234, 25.0384] }
    },
    {
      "type": "Feature",
      "properties": {
        "addr": "\u53f0\u5317\u5e02\u4e2d\u5c71\u5340\u4e2d\u5c71\u5357\u8def8\u865f"
      },
      "geometry": { "type": "Point", "coordinates": [121.5188, 25.0443] }
    },
    {
      "type": "Feature",
      "properties": {
        "addr": "\u53f0\u5317\u5e02\u4e2d\u5c71\u5340\u4e2d\u5c71\u5357\u8def21\u865f"
      },
      "geometry": { "type": "Point", "coordinates": [121.5177, 25.0366] }
    },
    {
      "type": "Feature",
      "properties": {
        "addr": "\u53f0\u5317\u5e02\u4e2d\u5c71\u5340\u81e8\u6c82\u885763\u5df718\u865f"
      },
      "geometry": { "type": "Point", "coordinates": [121.5304, 25.0358] }
    },
    {
      "type": "Feature",
      "properties": {
        "addr": "\u53f0\u5317\u5e02\u4e2d\u5c71\u5340\u5fe0\u5b5d\u6771\u8def2\u6bb588\u865f"
      },
      "geometry": { "type": "Point", "coordinates": [121.5294, 25.043] }
    },
    {
      "type": "Feature",
      "properties": {
        "addr": "\u53f0\u5317\u5e02\u4e2d\u5c71\u5340\u5fe0\u5b5d\u6771\u8def2\u6bb580\u865f"
      },
      "geometry": { "type": "Point", "coordinates": [121.529, 25.0431] }
    },
    {
      "type": "Feature",
      "properties": {
        "addr": "\u53f0\u5317\u5e02\u4e2d\u5c71\u5340\u81e8\u6c82\u885744\u5df71\u865f\u6728\u9020\u5efa\u7bc9\u7269"
      },
      "geometry": { "type": "Point", "coordinates": [121.529, 25.0373] }
    },
    {
      "type": "Feature",
      "properties": {
        "addr": "\u53f0\u5317\u5e02\u4e2d\u5c71\u5340\u676d\u5dde\u5357\u8def1\u6bb515\u865f"
      },
      "geometry": { "type": "Point", "coordinates": [121.5268, 25.0431] }
    },
    {
      "type": "Feature",
      "properties": {
        "addr": "\u53f0\u5317\u5e02\u4e2d\u5c71\u5340\u5fe0\u5b5d\u6771\u8def2\u6bb5123\u865f"
      },
      "geometry": { "type": "Point", "coordinates": [121.5325, 25.0428] }
    },
    {
      "type": "Feature",
      "properties": {
        "addr": "\u53f0\u5317\u5e02\u4e2d\u5c71\u5340\u5fe0\u5b5d\u6771\u8def1\u6bb512\u865f"
      },
      "geometry": { "type": "Point", "coordinates": [121.5221, 25.0449] }
    },
    {
      "type": "Feature",
      "properties": {
        "addr": "\u53f0\u5317\u5e02\u4e2d\u5c71\u5340\u5fe0\u5b5d\u897f\u8def1\u6bb538\u865f"
      },
      "geometry": { "type": "Point", "coordinates": [121.5164, 25.0462] }
    },
    {
      "type": "Feature",
      "properties": {
        "addr": "\u53f0\u5317\u5e02\u4e2d\u5c71\u5340\u4ec1\u611b\u8def2\u6bb561"
      },
      "geometry": { "type": "Point", "coordinates": [121.5301, 25.0385] }
    },
    {
      "type": "Feature",
      "properties": {
        "addr": "\u53f0\u5317\u5e02\u4e2d\u5c71\u5340\u5f90\u5dde\u8def5\u865f"
      },
      "geometry": { "type": "Point", "coordinates": [121.5195, 25.042] }
    },
    {
      "type": "Feature",
      "properties": {
        "addr": "\u53f0\u5317\u5e02\u4e2d\u5c71\u5340\u6fdf\u5357\u8def1\u6bb52\u4e4b2\u865f"
      },
      "geometry": { "type": "Point", "coordinates": [121.5192, 25.0432] }
    },
    {
      "type": "Feature",
      "properties": {
        "addr": "\u53f0\u5317\u5e02\u4e2d\u5c71\u5340\u516c\u5712\u8def52\u865f"
      },
      "geometry": { "type": "Point", "coordinates": [121.5159, 25.041] }
    },
    {
      "type": "Feature",
      "properties": {
        "addr": "\u53f0\u5317\u5e02\u4e2d\u5c71\u5340\u65b0\u751f\u5357\u8def1\u6bb56\u865f"
      },
      "geometry": { "type": "Point", "coordinates": [121.5326, 25.044] }
    },
    {
      "type": "Feature",
      "properties": {
        "addr": "\u53f0\u5317\u5e02\u4e2d\u5c71\u5340\u4e2d\u83ef\u8def1\u6bb539\u865f"
      },
      "geometry": { "type": "Point", "coordinates": [121.5095, 25.045] }
    },
    {
      "type": "Feature",
      "properties": {
        "addr": "\u53f0\u5317\u5e02\u4e2d\u5c71\u5340\u5fe0\u5b5d\u897f\u8def1\u6bb550\u865f"
      },
      "geometry": { "type": "Point", "coordinates": [121.5158, 25.0462] }
    },
    {
      "type": "Feature",
      "properties": {
        "addr": "\u53f0\u5317\u5e02\u4e2d\u5c71\u5340\u5fe0\u5b5d\u897f\u8def1\u6bb550-1\u865fB1"
      },
      "geometry": { "type": "Point", "coordinates": [121.5158, 25.0463] }
    },
    {
      "type": "Feature",
      "properties": {
        "addr": "\u53f0\u5317\u5e02\u4e2d\u5c71\u5340\u81e8\u6c82\u885765\u5df711\u865f"
      },
      "geometry": { "type": "Point", "coordinates": [121.5297, 25.0358] }
    },
    {
      "type": "Feature",
      "properties": {
        "addr": "\u53f0\u5317\u5e02\u4e2d\u5c71\u5340\u65b0\u751f\u5357\u8def1\u6bb5124-3\u865f5\u6a13"
      },
      "geometry": { "type": "Point", "coordinates": [121.5325, 25.0375] }
    },
    {
      "type": "Feature",
      "properties": {
        "addr": "\u53f0\u5317\u5e02\u4e2d\u5c71\u5340\u4e2d\u83ef\u8def1\u6bb550\u865f\u5730\u4e0b1\u6a13"
      },
      "geometry": { "type": "Point", "coordinates": [121.5087, 25.0428] }
    },
    {
      "type": "Feature",
      "properties": {
        "addr": "\u53f0\u5317\u5e02\u4e2d\u5c71\u5340\u65b0\u751f\u5357\u8def1\u6bb5124-3\u865f1-4\u6a13"
      },
      "geometry": { "type": "Point", "coordinates": [121.5325, 25.0375] }
    },
    {
      "type": "Feature",
      "properties": {
        "addr": "\u53f0\u5317\u5e02\u4e2d\u5c71\u5340\u4ec1\u611b\u8def1\u6bb51\u865f"
      },
      "geometry": { "type": "Point", "coordinates": [121.5189, 25.0394] }
    },
    {
      "type": "Feature",
      "properties": {
        "addr": "\u53f0\u5317\u5e02\u4e2d\u5c71\u5340\u6c38\u6625\u8857"
      },
      "geometry": { "type": "Point", "coordinates": [121.5336, 25.0643] }
    },
    {
      "type": "Feature",
      "properties": {
        "addr": "\u53f0\u5317\u5e02\u4e2d\u5c71\u5340\u91cd\u6176\u5357\u8def1\u6bb599\u865f"
      },
      "geometry": { "type": "Point", "coordinates": [121.5134, 25.043] }
    },
    {
      "type": "Feature",
      "properties": {
        "addr": "\u53f0\u5317\u5e02\u4e2d\u5c71\u5340\u5bf6\u6176\u8def32\u865f"
      },
      "geometry": { "type": "Point", "coordinates": [121.5091, 25.0417] }
    },
    {
      "type": "Feature",
      "properties": {
        "addr": "\u53f0\u5317\u5e02\u4e2d\u5c71\u5340\u676d\u5dde\u5357\u8def1\u6bb528-1\u865f"
      },
      "geometry": { "type": "Point", "coordinates": [121.5244, 25.036] }
    },
    {
      "type": "Feature",
      "properties": {
        "addr": "\u53f0\u5317\u5e02\u6587\u5c71\u5340\u7f85\u65af\u798f\u8def6\u6bb5280\u865f"
      },
      "geometry": { "type": "Point", "coordinates": [121.5398, 24.9912] }
    },
    {
      "type": "Feature",
      "properties": {
        "addr": "\u53f0\u5317\u5e02\u4e2d\u5c71\u5340\u4ec1\u611b\u8def1\u6bb550\u865f"
      },
      "geometry": { "type": "Point", "coordinates": [121.5247, 25.0381] }
    },
    {
      "type": "Feature",
      "properties": {
        "addr": "\u53f0\u5317\u5e02\u4e2d\u5c71\u5340\u6649\u6c5f\u8857"
      },
      "geometry": { "type": "Point", "coordinates": [121.5336, 25.0643] }
    },
    {
      "type": "Feature",
      "properties": {
        "addr": "\u53f0\u5317\u5e02\u4e2d\u5c71\u5340\u8a31\u660c\u885717\u865f"
      },
      "geometry": { "type": "Point", "coordinates": [121.517, 25.0457] }
    },
    {
      "type": "Feature",
      "properties": {
        "addr": "\u53f0\u5317\u5e02\u4e2d\u5c71\u5340\u5fe0\u5b5d\u897f\u8def1\u6bb57\u865f"
      },
      "geometry": { "type": "Point", "coordinates": [121.5192, 25.046] }
    },
    {
      "type": "Feature",
      "properties": {
        "addr": "\u53f0\u5317\u5e02\u4e2d\u5c71\u5340\u6797\u68ee\u5357\u8def"
      },
      "geometry": { "type": "Point", "coordinates": [121.5222, 25.0408] }
    },
    {
      "type": "Feature",
      "properties": {
        "addr": "\u53f0\u5317\u5e02\u6587\u5c71\u5340\u6728\u67f5\u8def3\u6bb585\u5df78\u5f044-1"
      },
      "geometry": { "type": "Point", "coordinates": [121.5673, 24.9893] }
    },
    {
      "type": "Feature",
      "properties": {
        "addr": "\u53f0\u5317\u5e02\u4e2d\u5c71\u5340\u7f85\u65af\u798f\u8def\u56db\u6bb5136\u5df73\u865f"
      },
      "geometry": { "type": "Point", "coordinates": [121.5355, 25.0128] }
    },
    {
      "type": "Feature",
      "properties": {
        "addr": "\u53f0\u5317\u5e02\u6587\u5c71\u5340\u842c\u82b3\u4ea4\u6d41\u9053"
      },
      "geometry": { "type": "Point", "coordinates": [121.5783, 25.0055] }
    },
    {
      "type": "Feature",
      "properties": {
        "addr": "\u53f0\u5317\u5e02\u6587\u5c71\u5340\u666f\u8208\u8def"
      },
      "geometry": { "type": "Point", "coordinates": [121.544, 24.9923] }
    },
    {
      "type": "Feature",
      "properties": {
        "addr": "\u53f0\u5317\u5e02\u4e2d\u5c71\u5340\u60e0\u5b89\u885717\u865f\u5730\u4e0b\u4e00\u6a13"
      },
      "geometry": { "type": "Point", "coordinates": [121.5067, 25.0296] }
    },
    {
      "type": "Feature",
      "properties": {
        "addr": "\u53f0\u5317\u5e02\u6587\u5c71\u5340\u6eaa\u53e3\u88571\u5df75\u865f3"
      },
      "geometry": { "type": "Point", "coordinates": [121.5399, 24.9941] }
    },
    {
      "type": "Feature",
      "properties": {
        "addr": "\u53f0\u5317\u5e02\u6587\u5c71\u5340\u6728\u67f5\u8def2\u6bb5163"
      },
      "geometry": { "type": "Point", "coordinates": [121.5631, 24.9892] }
    },
    {
      "type": "Feature",
      "properties": {
        "addr": "\u53f0\u5317\u5e02\u6587\u5c71\u5340\u666f\u8208\u8def153\u5df7"
      },
      "geometry": { "type": "Point", "coordinates": [121.5457, 24.9938] }
    },
    {
      "type": "Feature",
      "properties": {
        "addr": "\u53f0\u5317\u5e02\u6587\u5c71\u5340\u8f9b\u4ea5\u8def5\u6bb5120-1\u865f1-4\u6a13"
      },
      "geometry": { "type": "Point", "coordinates": [121.5522, 24.9975] }
    },
    {
      "type": "Feature",
      "properties": {
        "addr": "\u53f0\u5317\u5e02\u6587\u5c71\u5340\u8f9b\u4ea5\u8def5\u6bb5"
      },
      "geometry": { "type": "Point", "coordinates": [121.5532, 24.9983] }
    },
    {
      "type": "Feature",
      "properties": {
        "addr": "\u53f0\u5317\u5e02\u6587\u5c71\u5340\u6eaa\u53e3\u88571\u5df75\u865f"
      },
      "geometry": { "type": "Point", "coordinates": [121.5399, 24.9941] }
    },
    {
      "type": "Feature",
      "properties": {
        "addr": "\u53f0\u5317\u5e02\u6587\u5c71\u5340\u79c0\u660e\u8def2\u6bb5115\u5df71"
      },
      "geometry": { "type": "Point", "coordinates": [121.577, 24.991] }
    },
    {
      "type": "Feature",
      "properties": {
        "addr": "\u53f0\u5317\u5e02\u6587\u5c71\u5340\u6728\u67f5\u8def3\u6bb5177\u865fB5"
      },
      "geometry": { "type": "Point", "coordinates": [121.5696, 24.9897] }
    },
    {
      "type": "Feature",
      "properties": {
        "addr": "\u53f0\u5317\u5e02\u6587\u5c71\u5340\u8208\u9686\u8def2\u6bb595\u5df78\u865f3"
      },
      "geometry": { "type": "Point", "coordinates": [121.5469, 25.0] }
    },
    {
      "type": "Feature",
      "properties": {
        "addr": "\u53f0\u5317\u5e02\u6587\u5c71\u5340\u8a66\u9662\u8def144\u5df7"
      },
      "geometry": { "type": "Point", "coordinates": [121.5473, 24.9903] }
    },
    {
      "type": "Feature",
      "properties": {
        "addr": "\u53f0\u5317\u5e02\u6587\u5c71\u5340\u842c\u548c\u88576\u865f8\u865f5\u6a13"
      },
      "geometry": { "type": "Point", "coordinates": [121.5671, 25.0018] }
    },
    {
      "type": "Feature",
      "properties": {
        "addr": "\u53f0\u5317\u5e02\u6587\u5c71\u5340\u8eca\u524d\u8def12\u865f3"
      },
      "geometry": { "type": "Point", "coordinates": [121.5405, 24.9914] }
    },
    {
      "type": "Feature",
      "properties": {
        "addr": "\u53f0\u5317\u5e02\u6587\u5c71\u5340\u8208\u9686\u8def4\u6bb5109\u5df730\u865f4\u6a13"
      },
      "geometry": { "type": "Point", "coordinates": [121.5615, 24.9867] }
    },
    {
      "type": "Feature",
      "properties": {
        "addr": "\u53f0\u5317\u5e02\u6587\u5c71\u5340\u7f85\u65af\u798f\u8def5\u6bb5172-1\u865fB1"
      },
      "geometry": { "type": "Point", "coordinates": [121.5385, 25.0043] }
    },
    {
      "type": "Feature",
      "properties": {
        "addr": "\u53f0\u5317\u5e02\u6587\u5c71\u5340\u8f9b\u4ea5\u8def6\u6bb521\u5df72"
      },
      "geometry": { "type": "Point", "coordinates": [121.5526, 24.9913] }
    },
    {
      "type": "Feature",
      "properties": {
        "addr": "\u53f0\u5317\u5e02\u6587\u5c71\u5340\u653f\u5927\u4e8c\u8857129\u865f"
      },
      "geometry": { "type": "Point", "coordinates": [121.5842, 24.9893] }
    },
    {
      "type": "Feature",
      "properties": {
        "addr": "\u53f0\u5317\u5e02\u6587\u5c71\u5340\u666f\u8208\u8def222\u865f3\u6a13"
      },
      "geometry": { "type": "Point", "coordinates": [121.5433, 24.9911] }
    },
    {
      "type": "Feature",
      "properties": {
        "addr": "\u53f0\u5317\u5e02\u842c\u83ef\u5340\u5ce8\u7709\u8857124-1\u865f"
      },
      "geometry": { "type": "Point", "coordinates": [121.502, 25.0446] }
    },
    {
      "type": "Feature",
      "properties": {
        "addr": "\u53f0\u5317\u5e02\u842c\u83ef\u5340\u5ee3\u5dde\u8857243\u865f"
      },
      "geometry": { "type": "Point", "coordinates": [121.498, 25.0369] }
    },
    {
      "type": "Feature",
      "properties": {
        "addr": "\u53f0\u5317\u5e02\u842c\u83ef\u5340\u5ee3\u5dde\u8857"
      },
      "geometry": { "type": "Point", "coordinates": [121.5011, 25.0366] }
    },
    {
      "type": "Feature",
      "properties": {
        "addr": "\u53f0\u5317\u5e02\u842c\u83ef\u5340\u548c\u5e73\u897f\u8def3\u6bb5\u8207\u897f\u5712\u8def1\u6bb5\u9593"
      },
      "geometry": { "type": "Point", "coordinates": [121.4992, 25.0352] }
    },
    {
      "type": "Feature",
      "properties": {
        "addr": "\u53f0\u5317\u5e02\u842c\u83ef\u5340\u9752\u5e74\u8def106\u865f"
      },
      "geometry": { "type": "Point", "coordinates": [121.5026, 25.0229] }
    },
    {
      "type": "Feature",
      "properties": {
        "addr": "\u53f0\u5317\u5e02\u842c\u83ef\u5340\u67f3\u5dde\u885741\u865f4\u6a13"
      },
      "geometry": { "type": "Point", "coordinates": [121.5054, 25.0385] }
    },
    {
      "type": "Feature",
      "properties": {
        "addr": "\u53f0\u5317\u5e02\u842c\u83ef\u5340\u897f\u5be7\u5357\u8def4\u865f"
      },
      "geometry": { "type": "Point", "coordinates": [121.507, 25.0479] }
    },
    {
      "type": "Feature",
      "properties": {
        "addr": "\u53f0\u5317\u5e02\u842c\u83ef\u5340\u897f\u660c\u8857"
      },
      "geometry": { "type": "Point", "coordinates": [121.5007, 25.0398] }
    },
    {
      "type": "Feature",
      "properties": {
        "addr": "\u53f0\u5317\u5e02\u842c\u83ef\u5340\u842c\u83ef\u5340\u6210\u90fd\u8def110\u865f"
      },
      "geometry": { "type": "Point", "coordinates": [121.5018, 25.0436] }
    },
    {
      "type": "Feature",
      "properties": {
        "addr": "\u53f0\u5317\u5e02\u842c\u83ef\u5340\u6f22\u4e2d\u885752\u865f"
      },
      "geometry": { "type": "Point", "coordinates": [121.5072, 25.0439] }
    },
    {
      "type": "Feature",
      "properties": {
        "addr": "\u53f0\u5317\u5e02\u842c\u83ef\u5340\u897f\u5be7\u5357\u8def70\u865f"
      },
      "geometry": { "type": "Point", "coordinates": [121.506, 25.0435] }
    },
    {
      "type": "Feature",
      "properties": {
        "addr": "\u53f0\u5317\u5e02\u842c\u83ef\u5340\u6b66\u660c\u88572\u6bb577\u865f"
      },
      "geometry": { "type": "Point", "coordinates": [121.5057, 25.0451] }
    },
    {
      "type": "Feature",
      "properties": {
        "addr": "\u53f0\u5317\u5e02\u842c\u83ef\u5340\u897f\u660c\u8857188"
      },
      "geometry": { "type": "Point", "coordinates": [121.5005, 25.0377] }
    },
    {
      "type": "Feature",
      "properties": {
        "addr": "\u53f0\u5317\u5e02\u842c\u83ef\u5340\u5ce8\u5d4b\u885752\u865f"
      },
      "geometry": { "type": "Point", "coordinates": [121.4999, 25.0349] }
    },
    {
      "type": "Feature",
      "properties": {
        "addr": "\u53f0\u5317\u5e02\u842c\u83ef\u5340\u842c\u83ef\u5340\u6f22\u53e3\u88572\u6bb554\u865f3F\u6a13"
      },
      "geometry": { "type": "Point", "coordinates": [121.5057, 25.0456] }
    },
    {
      "type": "Feature",
      "properties": {
        "addr": "\u53f0\u5317\u5e02\u842c\u83ef\u5340\u897f\u5be7\u5357\u8def127\u865f"
      },
      "geometry": { "type": "Point", "coordinates": [121.5066, 25.0444] }
    },
    {
      "type": "Feature",
      "properties": {
        "addr": "\u53f0\u5317\u5e02\u842c\u83ef\u5340\u842c\u83ef\u5340\u5ce8\u7709\u88575\u865f2\u6a13"
      },
      "geometry": { "type": "Point", "coordinates": [121.508, 25.0434] }
    },
    {
      "type": "Feature",
      "properties": {
        "addr": "\u53f0\u5317\u5e02\u842c\u83ef\u5340\u6f22\u4e2d\u8857116\u865f"
      },
      "geometry": { "type": "Point", "coordinates": [121.5075, 25.0428] }
    },
    {
      "type": "Feature",
      "properties": {
        "addr": "\u53f0\u5317\u5e02\u842c\u83ef\u5340\u842c\u83ef\u5340\u6f22\u4e2d\u885742\u865f6\u6a13"
      },
      "geometry": { "type": "Point", "coordinates": [121.5073, 25.0442] }
    },
    {
      "type": "Feature",
      "properties": {
        "addr": "\u53f0\u5317\u5e02\u842c\u83ef\u5340\u842c\u83ef\u5340\u6f22\u53e3\u88572\u6bb554\u865f2\u6a13\u4e4b13"
      },
      "geometry": { "type": "Point", "coordinates": [121.5059, 25.0458] }
    },
    {
      "type": "Feature",
      "properties": {
        "addr": "\u53f0\u5317\u5e02\u842c\u83ef\u5340\u897f\u5712\u8def2\u6bb552\u5df714\u5f04\u4ee5\u897f\u820716\u5f04\u4ee5\u6771\u6240\u570d\u8857\u5ed3"
      },
      "geometry": { "type": "Point", "coordinates": [121.497, 25.0317] }
    },
    {
      "type": "Feature",
      "properties": {
        "addr": "\u53f0\u5317\u5e02\u842c\u83ef\u5340\u897f\u660c\u8857201\u4e4b2\u865fB1-5\u6a13"
      },
      "geometry": { "type": "Point", "coordinates": [121.5007, 25.038] }
    },
    {
      "type": "Feature",
      "properties": {
        "addr": "\u53f0\u5317\u5e02\u842c\u83ef\u5340\u842c\u83ef\u5340\u6f22\u4e2d\u885742\u865f7\u6a13"
      },
      "geometry": { "type": "Point", "coordinates": [121.5073, 25.0442] }
    },
    {
      "type": "Feature",
      "properties": {
        "addr": "\u53f0\u5317\u5e02\u842c\u83ef\u5340\u842c\u83ef\u5340\u4e2d\u83ef\u8def1\u6bb5144\u865f9\u6a13"
      },
      "geometry": { "type": "Point", "coordinates": [121.5082, 25.0431] }
    },
    {
      "type": "Feature",
      "properties": {
        "addr": "\u53f0\u5317\u5e02\u842c\u83ef\u5340\u842c\u83ef\u5340\u6f22\u53e3\u88572\u6bb554\u865f3\u6a13"
      },
      "geometry": { "type": "Point", "coordinates": [121.5059, 25.0458] }
    },
    {
      "type": "Feature",
      "properties": {
        "addr": "\u53f0\u5317\u5e02\u842c\u83ef\u5340\u842c\u83ef\u5340\u6f22\u4e2d\u8857116\u865f7\u6a13"
      },
      "geometry": { "type": "Point", "coordinates": [121.5075, 25.0428] }
    },
    {
      "type": "Feature",
      "properties": {
        "addr": "\u53f0\u5317\u5e02\u842c\u83ef\u5340\u842c\u83ef\u5340\u897f\u5be7\u5357\u8def36\u865f4\u6a13"
      },
      "geometry": { "type": "Point", "coordinates": [121.5066, 25.0456] }
    },
    {
      "type": "Feature",
      "properties": {
        "addr": "\u53f0\u5317\u5e02\u842c\u83ef\u5340\u842c\u83ef\u5340\u6210\u90fd\u8def13\u865f8\u6a13"
      },
      "geometry": { "type": "Point", "coordinates": [121.5074, 25.0427] }
    },
    {
      "type": "Feature",
      "properties": {
        "addr": "\u53f0\u5317\u5e02\u842c\u83ef\u5340\u842c\u83ef\u5340\u5ce8\u7709\u885752\u865f9\u6a13"
      },
      "geometry": { "type": "Point", "coordinates": [121.5054, 25.0438] }
    },
    {
      "type": "Feature",
      "properties": {
        "addr": "\u53f0\u5317\u5e02\u842c\u83ef\u5340\u842c\u83ef\u5340\u5ce8\u7709\u885752\u865f7\u6a13"
      },
      "geometry": { "type": "Point", "coordinates": [121.5054, 25.0438] }
    },
    {
      "type": "Feature",
      "properties": {
        "addr": "\u53f0\u5317\u5e02\u842c\u83ef\u5340\u842c\u83ef\u5340\u6b66\u660c\u88572\u6bb589\u865f1"
      },
      "geometry": { "type": "Point", "coordinates": [121.5038, 25.0455] }
    },
    {
      "type": "Feature",
      "properties": {
        "addr": "\u53f0\u5317\u5e02\u842c\u83ef\u5340\u842c\u83ef\u5340\u897f\u5be7\u5357\u8def36\u865f3\u6a13\u4e4b91"
      },
      "geometry": { "type": "Point", "coordinates": [121.5066, 25.0456] }
    },
    {
      "type": "Feature",
      "properties": {
        "addr": "\u53f0\u5317\u5e02\u842c\u83ef\u5340\u842c\u83ef\u5340\u6b66\u660c\u88572\u6bb585\u865f1\u6a13"
      },
      "geometry": { "type": "Point", "coordinates": [121.5049, 25.0453] }
    },
    {
      "type": "Feature",
      "properties": {
        "addr": "\u53f0\u5317\u5e02\u842c\u83ef\u5340\u842c\u83ef\u5340\u6f22\u4e2d\u885752\u865f9\u6a13"
      },
      "geometry": { "type": "Point", "coordinates": [121.5072, 25.0439] }
    },
    {
      "type": "Feature",
      "properties": {
        "addr": "\u53f0\u5317\u5e02\u842c\u83ef\u5340\u842c\u83ef\u5340\u6b66\u660c\u88572\u6bb589\u865f5\u6a13"
      },
      "geometry": { "type": "Point", "coordinates": [121.504, 25.0455] }
    },
    {
      "type": "Feature",
      "properties": {
        "addr": "\u53f0\u5317\u5e02\u5927\u5b89\u5340\u4ec1\u611b\u8def4\u6bb5112\u5df711\u865f"
      },
      "geometry": { "type": "Point", "coordinates": [121.5497, 25.0366] }
    },
    {
      "type": "Feature",
      "properties": {
        "addr": "\u53f0\u5317\u5e02\u842c\u83ef\u5340\u842c\u83ef\u5340\u897f\u5be7\u5357\u8def36\u865f1F-3F\u6a13"
      },
      "geometry": { "type": "Point", "coordinates": [121.5066, 25.0456] }
    },
    {
      "type": "Feature",
      "properties": {
        "addr": "\u53f0\u5317\u5e02\u842c\u83ef\u5340\u842c\u83ef\u5340\u897f\u5be7\u5357\u8def70\u865f9\u6a13"
      },
      "geometry": { "type": "Point", "coordinates": [121.506, 25.0435] }
    },
    {
      "type": "Feature",
      "properties": {
        "addr": "\u53f0\u5317\u5e02\u5927\u5b89\u5340\u548c\u5e73\u6771\u8def3\u6bb5606\u5df7"
      },
      "geometry": { "type": "Point", "coordinates": [121.5612, 25.0131] }
    },
    {
      "type": "Feature",
      "properties": {
        "addr": "\u53f0\u5317\u5e02\u5927\u5b89\u5340\u548c\u5e73\u6771\u8def3\u6bb5636\u5df7167\u865f"
      },
      "geometry": { "type": "Point", "coordinates": [121.5641, 25.0082] }
    },
    {
      "type": "Feature",
      "properties": {
        "addr": "\u53f0\u5317\u5e02\u842c\u83ef\u5340\u842c\u83ef\u5340\u6f22\u53e3\u88572\u6bb554\u865f2\u6a13"
      },
      "geometry": { "type": "Point", "coordinates": [121.5059, 25.0458] }
    },
    {
      "type": "Feature",
      "properties": {
        "addr": "\u53f0\u5317\u5e02\u5927\u5b89\u5340\u5fe0\u5b5d\u6771\u8def3\u6bb5265\u865f"
      },
      "geometry": { "type": "Point", "coordinates": [121.5424, 25.0418] }
    },
    {
      "type": "Feature",
      "properties": {
        "addr": "\u53f0\u5317\u5e02\u5927\u5b89\u5340\u4ec1\u611b\u8def4\u6bb5266\u5df76\u865f"
      },
      "geometry": { "type": "Point", "coordinates": [121.5528, 25.0373] }
    },
    {
      "type": "Feature",
      "properties": {
        "addr": "\u53f0\u5317\u5e02\u5927\u5b89\u5340\u5fe0\u5b5d\u6771\u8def"
      },
      "geometry": { "type": "Point", "coordinates": [121.5346, 25.0265] }
    },
    {
      "type": "Feature",
      "properties": {
        "addr": "\u53f0\u5317\u5e02\u842c\u83ef\u5340\u842c\u83ef\u5340\u5ce8\u7709\u885752\u865f5\u6a13"
      },
      "geometry": { "type": "Point", "coordinates": [121.5054, 25.0438] }
    },
    {
      "type": "Feature",
      "properties": {
        "addr": "\u53f0\u5317\u5e02\u5927\u5b89\u5340\u6566\u5316\u5357\u8def2\u6bb5201"
      },
      "geometry": { "type": "Point", "coordinates": [121.5492, 25.0266] }
    },
    {
      "type": "Feature",
      "properties": {
        "addr": "\u53f0\u5317\u5e02\u5927\u5b89\u5340\u4ec1\u611b\u8def4\u6bb510\u865f"
      },
      "geometry": { "type": "Point", "coordinates": [121.5453, 25.0375] }
    },
    {
      "type": "Feature",
      "properties": {
        "addr": "\u53f0\u5317\u5e02\u5927\u5b89\u5340\u4fe1\u7fa9\u8def4\u6bb560\u865f"
      },
      "geometry": { "type": "Point", "coordinates": [121.5457, 25.0332] }
    },
    {
      "type": "Feature",
      "properties": {
        "addr": "\u53f0\u5317\u5e02\u842c\u83ef\u5340\u842c\u83ef\u5340\u6210\u90fd\u8def88\u865f1"
      },
      "geometry": { "type": "Point", "coordinates": [121.5045, 25.043] }
    },
    {
      "type": "Feature",
      "properties": {
        "addr": "\u53f0\u5317\u5e02\u5927\u5b89\u5340\u4ec1\u611b\u8def4\u6bb561\u865f"
      },
      "geometry": { "type": "Point", "coordinates": [121.5467, 25.0382] }
    },
    {
      "type": "Feature",
      "properties": {
        "addr": "\u53f0\u5317\u5e02\u5927\u5b89\u5340\u5fe0\u5b5d\u6771\u8def4\u6bb577\u865f"
      },
      "geometry": { "type": "Point", "coordinates": [121.5473, 25.0419] }
    },
    {
      "type": "Feature",
      "properties": {
        "addr": "\u53f0\u5317\u5e02\u5927\u5b89\u5340\u4fe1\u7fa9\u8def4\u6bb52\u865f"
      },
      "geometry": { "type": "Point", "coordinates": [121.544, 25.0331] }
    },
    {
      "type": "Feature",
      "properties": {
        "addr": "\u53f0\u5317\u5e02\u5927\u5b89\u5340\u57fa\u9686\u8def3\u6bb5155\u5df7"
      },
      "geometry": { "type": "Point", "coordinates": [121.5453, 25.0123] }
    },
    {
      "type": "Feature",
      "properties": {
        "addr": "\u53f0\u5317\u5e02\u5927\u5b89\u5340\u5fe0\u5b5d\u6771\u8def"
      },
      "geometry": { "type": "Point", "coordinates": [121.5346, 25.0265] }
    },
    {
      "type": "Feature",
      "properties": {
        "addr": "\u53f0\u5317\u5e02\u5927\u5b89\u5340\u548c\u5e73\u6771\u8def3\u6bb5\u5e95"
      },
      "geometry": { "type": "Point", "coordinates": [121.5534, 25.0234] }
    },
    {
      "type": "Feature",
      "properties": {
        "addr": "\u53f0\u5317\u5e02\u5927\u5b89\u5340\u57fa\u9686\u8def3\u6bb5155\u5df7107\u5f04"
      },
      "geometry": { "type": "Point", "coordinates": [121.5454, 25.0137] }
    },
    {
      "type": "Feature",
      "properties": {
        "addr": "\u53f0\u5317\u5e02\u5927\u5b89\u5340\u7f85\u65af\u798f\u8def4\u6bb5119\u5df760\u5f04"
      },
      "geometry": { "type": "Point", "coordinates": [121.5383, 25.0093] }
    },
    {
      "type": "Feature",
      "properties": {
        "addr": "\u53f0\u5317\u5e02\u5927\u5b89\u5340\u548c\u5e73\u6771\u8def1\u6bb5177\u865f"
      },
      "geometry": { "type": "Point", "coordinates": [121.5322, 25.0265] }
    },
    {
      "type": "Feature",
      "properties": {
        "addr": "\u53f0\u5317\u5e02\u5927\u5b89\u5340\u5fe0\u5b5d\u6771\u8def4\u6bb5205\u5df738\u865f"
      },
      "geometry": { "type": "Point", "coordinates": [121.5519, 25.0442] }
    },
    {
      "type": "Feature",
      "properties": {
        "addr": "\u53f0\u5317\u5e02\u5927\u5b89\u5340\u4fe1\u7fa9\u8def2\u6bb5166\u865f"
      },
      "geometry": { "type": "Point", "coordinates": [121.5294, 25.0337] }
    },
    {
      "type": "Feature",
      "properties": {
        "addr": "\u53f0\u5317\u5e02\u5927\u5b89\u5340\u901a\u5316\u885739\u5df749\u5f0412\u865f"
      },
      "geometry": { "type": "Point", "coordinates": [121.5555, 25.0311] }
    },
    {
      "type": "Feature",
      "properties": {
        "addr": "\u53f0\u5317\u5e02\u5927\u5b89\u5340\u5fe0\u5b5d\u6771\u8def4\u6bb5201\u865f"
      },
      "geometry": { "type": "Point", "coordinates": [121.5518, 25.0417] }
    },
    {
      "type": "Feature",
      "properties": {
        "addr": "\u53f0\u5317\u5e02\u5927\u5b89\u5340\u4fe1\u7fa9\u8def4\u6bb5265\u5df717-1\u865f"
      },
      "geometry": { "type": "Point", "coordinates": [121.5546, 25.0342] }
    },
    {
      "type": "Feature",
      "properties": {
        "addr": "\u53f0\u5317\u5e02\u4fe1\u7fa9\u5340\u5fe0\u5b5d\u6771\u8def5\u6bb56"
      },
      "geometry": { "type": "Point", "coordinates": [121.5652, 25.0409] }
    },
    {
      "type": "Feature",
      "properties": {
        "addr": "\u53f0\u5317\u5e02\u5927\u5b89\u5340\u5149\u5fa9\u5357\u8def676\u5df716\u865f"
      },
      "geometry": { "type": "Point", "coordinates": [121.5564, 25.0307] }
    },
    {
      "type": "Feature",
      "properties": {
        "addr": "\u53f0\u5317\u5e02\u4fe1\u7fa9\u5340\u5149\u5fa9\u5357\u8def567\u865f"
      },
      "geometry": { "type": "Point", "coordinates": [121.5576, 25.0308] }
    },
    {
      "type": "Feature",
      "properties": {
        "addr": "\u53f0\u5317\u5e02\u5927\u5b89\u5340\u5fe0\u5b5d\u6771\u8def4\u6bb5116\u5df71-5\u865f"
      },
      "geometry": { "type": "Point", "coordinates": [121.547, 25.0414] }
    },
    {
      "type": "Feature",
      "properties": {
        "addr": "\u53f0\u5317\u5e02\u4fe1\u7fa9\u5340\u4fe1\u7fa9\u8def5\u6bb5150\u5df78\u865f"
      },
      "geometry": { "type": "Point", "coordinates": [121.5708, 25.0279] }
    },
    {
      "type": "Feature",
      "properties": {
        "addr": "\u53f0\u5317\u5e02\u5927\u5b89\u5340\u57fa\u9686\u8def3\u6bb5155\u5df757\u865f"
      },
      "geometry": { "type": "Point", "coordinates": [121.5439, 25.0145] }
    },
    {
      "type": "Feature",
      "properties": {
        "addr": "\u53f0\u5317\u5e02\u4fe1\u7fa9\u5340\u677e\u4ec1\u8def32"
      },
      "geometry": { "type": "Point", "coordinates": [121.5681, 25.0388] }
    },
    {
      "type": "Feature",
      "properties": {
        "addr": "\u53f0\u5317\u5e02\u4fe1\u7fa9\u5340\u5fe0\u5b5d\u6771\u8def5\u6bb5508"
      },
      "geometry": { "type": "Point", "coordinates": [121.5788, 25.0411] }
    },
    {
      "type": "Feature",
      "properties": {
        "addr": "\u53f0\u5317\u5e02\u4fe1\u7fa9\u5340\u677e\u4ec1\u8def38\u865f"
      },
      "geometry": { "type": "Point", "coordinates": [121.5681, 25.0379] }
    },
    {
      "type": "Feature",
      "properties": {
        "addr": "\u53f0\u5317\u5e02\u4fe1\u7fa9\u5340\u57fa\u9686\u8def1\u6bb5200\u865f"
      },
      "geometry": { "type": "Point", "coordinates": [121.5635, 25.0402] }
    },
    {
      "type": "Feature",
      "properties": {
        "addr": "\u53f0\u5317\u5e02\u4fe1\u7fa9\u5340\u7d2b\u96f2\u885722-26\u865f"
      },
      "geometry": { "type": "Point", "coordinates": [121.5741, 25.0182] }
    },
    {
      "type": "Feature",
      "properties": {
        "addr": "\u53f0\u5317\u5e02\u4fe1\u7fa9\u5340\u677e\u5fb7\u8def94\u865f"
      },
      "geometry": { "type": "Point", "coordinates": [121.5753, 25.0379] }
    },
    {
      "type": "Feature",
      "properties": {
        "addr": "\u53f0\u5317\u5e02\u4fe1\u7fa9\u5340\u6c38\u5409\u8def443"
      },
      "geometry": { "type": "Point", "coordinates": [121.5783, 25.0455] }
    },
    {
      "type": "Feature",
      "properties": {
        "addr": "\u53f0\u5317\u5e02\u4fe1\u7fa9\u5340\u57fa\u9686\u8def2\u6bb5189\u865f"
      },
      "geometry": { "type": "Point", "coordinates": [121.5533, 25.0248] }
    },
    {
      "type": "Feature",
      "properties": {
        "addr": "\u53f0\u5317\u5e02\u4fe1\u7fa9\u5340\u5d07\u5fb7\u8857200\u865f\u4ee5\u4e0a"
      },
      "geometry": { "type": "Point", "coordinates": [121.5596, 25.0223] }
    },
    {
      "type": "Feature",
      "properties": {
        "addr": "\u53f0\u5317\u5e02\u4fe1\u7fa9\u5340\u57fa\u9686\u8def1\u6bb5333\u865f"
      },
      "geometry": { "type": "Point", "coordinates": [121.5611, 25.0343] }
    },
    {
      "type": "Feature",
      "properties": {
        "addr": "\u53f0\u5317\u5e02\u4fe1\u7fa9\u5340\u4fe1\u7fa9\u8def4\u6bb5460"
      },
      "geometry": { "type": "Point", "coordinates": [121.5588, 25.0328] }
    },
    {
      "type": "Feature",
      "properties": {
        "addr": "\u53f0\u5317\u5e02\u4fe1\u7fa9\u5340\u677e\u5fb7\u8def151\u865f"
      },
      "geometry": { "type": "Point", "coordinates": [121.5749, 25.0366] }
    },
    {
      "type": "Feature",
      "properties": {
        "addr": "\u53f0\u5317\u5e02\u4fe1\u7fa9\u5340\u57fa\u9686\u8def1\u6bb5206\u865f"
      },
      "geometry": { "type": "Point", "coordinates": [121.5633, 25.0398] }
    },
    {
      "type": "Feature",
      "properties": {
        "addr": "\u53f0\u5317\u5e02\u4fe1\u7fa9\u5340\u677e\u5fb7\u8def93"
      },
      "geometry": { "type": "Point", "coordinates": [121.5761, 25.0381] }
    },
    {
      "type": "Feature",
      "properties": {
        "addr": "\u53f0\u5317\u5e02\u4fe1\u7fa9\u5340\u677e\u4ec1\u8def3\u865f"
      },
      "geometry": { "type": "Point", "coordinates": [121.5686, 25.0395] }
    },
    {
      "type": "Feature",
      "properties": {
        "addr": "\u53f0\u5317\u5e02\u4fe1\u7fa9\u5340\u677e\u5fb7\u8def171\u865f"
      },
      "geometry": { "type": "Point", "coordinates": [121.5748, 25.0359] }
    },
    {
      "type": "Feature",
      "properties": {
        "addr": "\u53f0\u5317\u5e02\u4fe1\u7fa9\u5340\u677e\u58fd\u8def2\u865f"
      },
      "geometry": { "type": "Point", "coordinates": [121.5626, 25.0357] }
    },
    {
      "type": "Feature",
      "properties": {
        "addr": "\u53f0\u5317\u5e02\u4fe1\u7fa9\u5340\u4e2d\u5761\u5317\u8def21\u865f1-2\u6a13"
      },
      "geometry": { "type": "Point", "coordinates": [121.5808, 25.0449] }
    },
    {
      "type": "Feature",
      "properties": {
        "addr": "\u53f0\u5317\u5e02\u4fe1\u7fa9\u5340\u4fe1\u7fa9\u8def4\u6bb5456"
      },
      "geometry": { "type": "Point", "coordinates": [121.5583, 25.0328] }
    },
    {
      "type": "Feature",
      "properties": {
        "addr": "\u53f0\u5317\u5e02\u4fe1\u7fa9\u5340\u4fe1\u7fa9\u8def5\u6bb5150\u5df72\u865f"
      },
      "geometry": { "type": "Point", "coordinates": [121.5709, 25.0295] }
    },
    {
      "type": "Feature",
      "properties": {
        "addr": "\u53f0\u5317\u5e02\u4fe1\u7fa9\u5340\u83f8\u5ee0\u8def88\u865f"
      },
      "geometry": { "type": "Point", "coordinates": [121.5611, 25.0447] }
    },
    {
      "type": "Feature",
      "properties": {
        "addr": "\u53f0\u5317\u5e02\u4fe1\u7fa9\u5340\u4fe1\u7fa9\u8def5\u6bb57\u865f"
      },
      "geometry": { "type": "Point", "coordinates": [121.5646, 25.0335] }
    },
    {
      "type": "Feature",
      "properties": {
        "addr": "\u53f0\u5317\u5e02\u4fe1\u7fa9\u5340\u677e\u4ec1\u8def7\u865f"
      },
      "geometry": { "type": "Point", "coordinates": [121.5689, 25.0383] }
    },
    {
      "type": "Feature",
      "properties": {
        "addr": "\u53f0\u5317\u5e02\u4fe1\u7fa9\u5340\u677e\u58fd\u8def11\u865f"
      },
      "geometry": { "type": "Point", "coordinates": [121.5672, 25.036] }
    },
    {
      "type": "Feature",
      "properties": {
        "addr": "\u53f0\u5317\u5e02\u4fe1\u7fa9\u5340\u5433\u8208\u8857252\u865f"
      },
      "geometry": { "type": "Point", "coordinates": [121.5636, 25.0266] }
    },
    {
      "type": "Feature",
      "properties": {
        "addr": "\u53f0\u5317\u5e02\u4fe1\u7fa9\u5340\u4fe1\u7fa9\u8def6\u6bb515\u5df716\u865f1\u6a13"
      },
      "geometry": { "type": "Point", "coordinates": [121.5754, 25.0352] }
    },
    {
      "type": "Feature",
      "properties": {
        "addr": "\u53f0\u5317\u5e02\u4fe1\u7fa9\u5340\u677e\u58fd\u8def12\u865f"
      },
      "geometry": { "type": "Point", "coordinates": [121.566, 25.0357] }
    },
    {
      "type": "Feature",
      "properties": {
        "addr": "\u53f0\u5317\u5e02\u4fe1\u7fa9\u5340\u677e\u9ad8\u8def12\u865f"
      },
      "geometry": { "type": "Point", "coordinates": [121.5668, 25.0388] }
    },
    {
      "type": "Feature",
      "properties": {
        "addr": "\u53f0\u5317\u5e02\u4fe1\u7fa9\u5340\u677e\u5c71\u8def11\u865f"
      },
      "geometry": { "type": "Point", "coordinates": [121.5783, 25.0485] }
    },
    {
      "type": "Feature",
      "properties": {
        "addr": "\u53f0\u5317\u5e02\u4fe1\u7fa9\u5340\u677e\u9686\u8def36\u865f6\u6a13"
      },
      "geometry": { "type": "Point", "coordinates": [121.5676, 25.0435] }
    },
    {
      "type": "Feature",
      "properties": {
        "addr": "\u53f0\u5317\u5e02\u4fe1\u7fa9\u5340\u4fe1\u7fa9\u8def5\u6bb51\u865f"
      },
      "geometry": { "type": "Point", "coordinates": [121.5608, 25.0332] }
    },
    {
      "type": "Feature",
      "properties": {
        "addr": "\u53f0\u5317\u5e02\u4fe1\u7fa9\u5340\u677e\u5fb7\u8def309\u865f"
      },
      "geometry": { "type": "Point", "coordinates": [121.5749, 25.0305] }
    },
    {
      "type": "Feature",
      "properties": {
        "addr": "\u53f0\u5317\u5e02\u4fe1\u7fa9\u5340\u5fe0\u5b5d\u6771\u8def4\u6bb5400\u865f"
      },
      "geometry": { "type": "Point", "coordinates": [121.5579, 25.0411] }
    },
    {
      "type": "Feature",
      "properties": {
        "addr": "\u53f0\u5317\u5e02\u4fe1\u7fa9\u5340\u677e\u9ad8\u8def9"
      },
      "geometry": { "type": "Point", "coordinates": [121.5651, 25.0395] }
    },
    {
      "type": "Feature",
      "properties": {
        "addr": "\u53f0\u5317\u5e02\u4fe1\u7fa9\u5340\u677e\u9ad8\u8def19\u865f"
      },
      "geometry": { "type": "Point", "coordinates": [121.5667, 25.0394] }
    },
    {
      "type": "Feature",
      "properties": {
        "addr": "\u53f0\u5317\u5e02\u4fe1\u7fa9\u5340\u5fe0\u5b5d\u6771\u8def5\u6bb5297\u865f"
      },
      "geometry": { "type": "Point", "coordinates": [121.5728, 25.0411] }
    },
    {
      "type": "Feature",
      "properties": {
        "addr": "\u53f0\u5317\u5e02\u4fe1\u7fa9\u5340\u5fe0\u5b5d\u6771\u8def5\u6bb5"
      },
      "geometry": { "type": "Point", "coordinates": [121.5739, 25.0409] }
    },
    {
      "type": "Feature",
      "properties": {
        "addr": "\u53f0\u5317\u5e02\u4fe1\u7fa9\u5340\u57fa\u9686\u8def2\u6bb522\u865f"
      },
      "geometry": { "type": "Point", "coordinates": [121.5587, 25.0319] }
    },
    {
      "type": "Feature",
      "properties": {
        "addr": "\u53f0\u5317\u5e02\u4fe1\u7fa9\u5340\u4fe1\u7fa9\u8def4\u6bb5375\u865f"
      },
      "geometry": { "type": "Point", "coordinates": [121.5578, 25.0334] }
    },
    {
      "type": "Feature",
      "properties": {
        "addr": "\u53f0\u5317\u5e02\u4fe1\u7fa9\u5340\u5fe0\u5b5d\u6771\u8def5\u6bb5"
      },
      "geometry": { "type": "Point", "coordinates": [121.5739, 25.0409] }
    },
    {
      "type": "Feature",
      "properties": {
        "addr": "\u53f0\u5317\u5e02\u4fe1\u7fa9\u5340\u4fe1\u7fa9\u8def5\u6bb55\u865f"
      },
      "geometry": { "type": "Point", "coordinates": [121.5623, 25.0332] }
    },
    {
      "type": "Feature",
      "properties": {
        "addr": "\u53f0\u5317\u5e02\u4fe1\u7fa9\u5340\u677e\u667a\u8def1\u865f"
      },
      "geometry": { "type": "Point", "coordinates": [121.5661, 25.0388] }
    },
    {
      "type": "Feature",
      "properties": {
        "addr": "\u53f0\u5317\u5e02\u4fe1\u7fa9\u5340\u57fa\u9686\u8def1\u6bb5432\u865f"
      },
      "geometry": { "type": "Point", "coordinates": [121.5597, 25.0337] }
    },
    {
      "type": "Feature",
      "properties": {
        "addr": "\u53f0\u5317\u5e02\u4fe1\u7fa9\u5340\u5433\u8208\u8857600\u5df7"
      },
      "geometry": { "type": "Point", "coordinates": [121.5707, 25.019] }
    },
    {
      "type": "Feature",
      "properties": {
        "addr": "\u53f0\u5317\u5e02\u4fe1\u7fa9\u5340\u4fe1\u7fa9\u8def5\u6bb5"
      },
      "geometry": { "type": "Point", "coordinates": [121.5624, 25.0333] }
    },
    {
      "type": "Feature",
      "properties": {
        "addr": "\u53f0\u5317\u5e02\u4fe1\u7fa9\u5340\u4fe1\u7fa9\u8def5\u6bb595\u865f"
      },
      "geometry": { "type": "Point", "coordinates": [121.572, 25.0332] }
    },
    {
      "type": "Feature",
      "properties": {
        "addr": "\u53f0\u5317\u5e02\u4fe1\u7fa9\u5340\u9038\u4ed9\u8def26\u5df71\u865fB1"
      },
      "geometry": { "type": "Point", "coordinates": [121.5616, 25.0395] }
    },
    {
      "type": "Feature",
      "properties": {
        "addr": "\u53f0\u5317\u5e02\u4fe1\u7fa9\u5340\u4fe1\u7fa9\u8def5\u6bb591\u5df72\u865f"
      },
      "geometry": { "type": "Point", "coordinates": [121.5713, 25.0333] }
    },
    {
      "type": "Feature",
      "properties": {
        "addr": "\u53f0\u5317\u5e02\u4fe1\u7fa9\u5340\u57fa\u9686\u8def2\u6bb5109\u865fB1"
      },
      "geometry": { "type": "Point", "coordinates": [121.5574, 25.029] }
    },
    {
      "type": "Feature",
      "properties": {
        "addr": "\u53f0\u5317\u5e02\u4fe1\u7fa9\u5340\u677e\u58fd\u8def9\u865f"
      },
      "geometry": { "type": "Point", "coordinates": [121.5666, 25.036] }
    },
    {
      "type": "Feature",
      "properties": {
        "addr": "\u53f0\u5317\u5e02\u4fe1\u7fa9\u5340\u677e\u9ad8\u8def16"
      },
      "geometry": { "type": "Point", "coordinates": [121.5673, 25.0387] }
    },
    {
      "type": "Feature",
      "properties": {
        "addr": "\u53f0\u5317\u5e02\u4fe1\u7fa9\u5340\u5bcc\u967d\u885757\u865f"
      },
      "geometry": { "type": "Point", "coordinates": [121.5565, 25.0222] }
    },
    {
      "type": "Feature",
      "properties": {
        "addr": "\u53f0\u5317\u5e02\u4fe1\u7fa9\u5340\u677e\u4ec1\u8def28\u865f"
      },
      "geometry": { "type": "Point", "coordinates": [121.5681, 25.0395] }
    },
    {
      "type": "Feature",
      "properties": {
        "addr": "\u53f0\u5317\u5e02\u4fe1\u7fa9\u5340\u677e\u52c7\u8def69\u5df72\u865f"
      },
      "geometry": { "type": "Point", "coordinates": [121.57, 25.0334] }
    },
    {
      "type": "Feature",
      "properties": {
        "addr": "\u53f0\u5317\u5e02\u4fe1\u7fa9\u5340\u677e\u4ec1\u8def123\u865f"
      },
      "geometry": { "type": "Point", "coordinates": [121.5688, 25.0345] }
    },
    {
      "type": "Feature",
      "properties": {
        "addr": "\u53f0\u5317\u5e02\u4fe1\u7fa9\u5340\u677e\u58fd\u8def22\u865f"
      },
      "geometry": { "type": "Point", "coordinates": [121.5677, 25.0356] }
    },
    {
      "type": "Feature",
      "properties": {
        "addr": "\u53f0\u5317\u5e02\u4fe1\u7fa9\u5340\u677e\u667a\u8def17\u865f"
      },
      "geometry": { "type": "Point", "coordinates": [121.5659, 25.0346] }
    },
    {
      "type": "Feature",
      "properties": {
        "addr": "\u53f0\u5317\u5e02\u4fe1\u7fa9\u5340\u5fe0\u5b5d\u6771\u8def5\u6bb515\u5df715\u865f"
      },
      "geometry": { "type": "Point", "coordinates": [121.566, 25.0421] }
    },
    {
      "type": "Feature",
      "properties": {
        "addr": "\u53f0\u5317\u5e02\u4fe1\u7fa9\u5340\u677e\u9ad8\u8def1\u865f"
      },
      "geometry": { "type": "Point", "coordinates": [121.5639, 25.0395] }
    },
    {
      "type": "Feature",
      "properties": {
        "addr": "\u53f0\u5317\u5e02\u4fe1\u7fa9\u5340\u5fe0\u5b5d\u6771\u8def5\u6bb510\u865f"
      },
      "geometry": { "type": "Point", "coordinates": [121.566, 25.0407] }
    },
    {
      "type": "Feature",
      "properties": {
        "addr": "\u53f0\u5317\u5e02\u4fe1\u7fa9\u5340\u5fe0\u5b5d\u6771\u8def5\u6bb568\u865f"
      },
      "geometry": { "type": "Point", "coordinates": [121.5667, 25.0406] }
    },
    {
      "type": "Feature",
      "properties": {
        "addr": "\u53f0\u5317\u5e02\u4fe1\u7fa9\u5340\u4fe1\u7fa9\u8def4\u6bb5450\u5df71\u865f"
      },
      "geometry": { "type": "Point", "coordinates": [121.5586, 25.0324] }
    },
    {
      "type": "Feature",
      "properties": {
        "addr": "\u53f0\u5317\u5e02\u4fe1\u7fa9\u5340\u4fe1\u7fa9\u8def5\u6bb5"
      },
      "geometry": { "type": "Point", "coordinates": [121.5624, 25.0333] }
    },
    {
      "type": "Feature",
      "properties": {
        "addr": "\u53f0\u5317\u5e02\u4fe1\u7fa9\u5340\u677e\u4ec1\u8def58\u865f"
      },
      "geometry": { "type": "Point", "coordinates": [121.568, 25.0368] }
    },
    {
      "type": "Feature",
      "properties": {
        "addr": "\u53f0\u5317\u5e02\u5357\u6e2f\u5340\u540c\u5fb7\u8def87\u865f"
      },
      "geometry": { "type": "Point", "coordinates": [121.5862, 25.0465] }
    },
    {
      "type": "Feature",
      "properties": {
        "addr": "\u53f0\u5317\u5e02\u5357\u6e2f\u5340\u5fe0\u5b5d\u6771\u8def7\u6bb5380\u865f"
      },
      "geometry": { "type": "Point", "coordinates": [121.6065, 25.0519] }
    },
    {
      "type": "Feature",
      "properties": {
        "addr": "\u53f0\u5317\u5e02\u5357\u6e2f\u5340\u7d93\u8cbf\u4e8c\u8def1\u865f"
      },
      "geometry": { "type": "Point", "coordinates": [121.6173, 25.0564] }
    },
    {
      "type": "Feature",
      "properties": {
        "addr": "\u53f0\u5317\u5e02\u4fe1\u7fa9\u5340\u5149\u5fa9\u5357\u8def439\u865f"
      },
      "geometry": { "type": "Point", "coordinates": [121.5577, 25.0357] }
    },
    {
      "type": "Feature",
      "properties": {
        "addr": "\u53f0\u5317\u5e02\u5357\u6e2f\u5340\u4e09\u91cd\u8def19\u865f"
      },
      "geometry": { "type": "Point", "coordinates": [121.6139, 25.056] }
    },
    {
      "type": "Feature",
      "properties": {
        "addr": "\u53f0\u5317\u5e02\u5357\u6e2f\u5340\u5357\u6e2f\u8def1\u6bb532\u865f"
      },
      "geometry": { "type": "Point", "coordinates": [121.6176, 25.0553] }
    },
    {
      "type": "Feature",
      "properties": {
        "addr": "\u53f0\u5317\u5e02\u4fe1\u7fa9\u5340\u677e\u52c7\u8def53\u5df721\u865f"
      },
      "geometry": { "type": "Point", "coordinates": [121.5704, 25.0346] }
    },
    {
      "type": "Feature",
      "properties": {
        "addr": "\u53f0\u5317\u5e02\u5357\u6e2f\u5340\u4e2d\u5357\u8857134\u5df7\u5167"
      },
      "geometry": { "type": "Point", "coordinates": [121.6146, 25.0516] }
    },
    {
      "type": "Feature",
      "properties": {
        "addr": "\u53f0\u5317\u5e02\u5357\u6e2f\u5340\u7814\u7a76\u9662\u8def1\u6bb51\u865f"
      },
      "geometry": { "type": "Point", "coordinates": [121.6168, 25.0549] }
    },
    {
      "type": "Feature",
      "properties": {
        "addr": "\u53f0\u5317\u5e02\u5357\u6e2f\u5340\u4e2d\u5357\u88571\u865f2\u6a13"
      },
      "geometry": { "type": "Point", "coordinates": [121.6154, 25.0551] }
    },
    {
      "type": "Feature",
      "properties": {
        "addr": "\u53f0\u5317\u5e02\u5357\u6e2f\u5340\u7814\u7a76\u9662\u8def3\u6bb5161\u5df73\u865f"
      },
      "geometry": { "type": "Point", "coordinates": [121.6147, 25.0308] }
    },
    {
      "type": "Feature",
      "properties": {
        "addr": "\u53f0\u5317\u5e02\u5357\u6e2f\u5340\u5fe0\u5b5d\u6771\u8def7\u6bb5359~369\u865f"
      },
      "geometry": { "type": "Point", "coordinates": [121.606, 25.0525] }
    },
    {
      "type": "Feature",
      "properties": {
        "addr": "\u53f0\u5317\u5e02\u5357\u6e2f\u5340\u7814\u7a76\u9662\u8def1\u6bb599\u865f"
      },
      "geometry": { "type": "Point", "coordinates": [121.6164, 25.0523] }
    },
    {
      "type": "Feature",
      "properties": {
        "addr": "\u53f0\u5317\u5e02\u5357\u6e2f\u5340\u4e09\u91cd\u8def66\u865f"
      },
      "geometry": { "type": "Point", "coordinates": [121.6144, 25.0572] }
    },
    {
      "type": "Feature",
      "properties": {
        "addr": "\u53f0\u5317\u5e02\u5167\u6e56\u5340\u5167\u6e56\u8def2\u6bb5103\u5df716\u865f"
      },
      "geometry": { "type": "Point", "coordinates": [121.5821, 25.0805] }
    },
    {
      "type": "Feature",
      "properties": {
        "addr": "\u53f0\u5317\u5e02\u5357\u6e2f\u5340\u5357\u6e2f\u5340\u7814\u7a76\u9662\u8def2\u6bb5128\u865f\u5167\u4e4b"
      },
      "geometry": { "type": "Point", "coordinates": [121.6167, 25.042] }
    },
    {
      "type": "Feature",
      "properties": {
        "addr": "\u53f0\u5317\u5e02\u5357\u6e2f\u5340\u7d93\u8cbf\u4e8c\u8def2\u865f"
      },
      "geometry": { "type": "Point", "coordinates": [121.6164, 25.056] }
    },
    {
      "type": "Feature",
      "properties": {
        "addr": "\u53f0\u5317\u5e02\u5167\u6e56\u5340\u745e\u5149\u8def392\u865f"
      },
      "geometry": { "type": "Point", "coordinates": [121.5713, 25.0778] }
    },
    {
      "type": "Feature",
      "properties": {
        "addr": "\u53f0\u5317\u5e02\u5357\u6e2f\u5340\u5712\u5340\u88573\u865f"
      },
      "geometry": { "type": "Point", "coordinates": [121.612, 25.0585] }
    },
    {
      "type": "Feature",
      "properties": {
        "addr": "\u53f0\u5317\u5e02\u5357\u6e2f\u5340\u7814\u7a76\u9662\u8def1\u6bb5101\u5df710\u865f"
      },
      "geometry": { "type": "Point", "coordinates": [121.6166, 25.0518] }
    },
    {
      "type": "Feature",
      "properties": {
        "addr": "\u53f0\u5317\u5e02\u5167\u6e56\u5340\u6210\u529f\u8def2\u6bb5488\u865f2.3\u6a13"
      },
      "geometry": { "type": "Point", "coordinates": [121.5897, 25.0733] }
    },
    {
      "type": "Feature",
      "properties": {
        "addr": "\u53f0\u5317\u5e02\u5357\u6e2f\u5340\u5357\u6e2f\u8def1\u6bb5313"
      },
      "geometry": { "type": "Point", "coordinates": [121.6072, 25.0544] }
    },
    {
      "type": "Feature",
      "properties": {
        "addr": "\u53f0\u5317\u5e02\u5167\u6e56\u5340\u65b0\u6e56\u4e09\u8def23\u865f"
      },
      "geometry": { "type": "Point", "coordinates": [121.5742, 25.062] }
    },
    {
      "type": "Feature",
      "properties": {
        "addr": "\u53f0\u5317\u5e02\u5167\u6e56\u5340\u6210\u529f\u8def4\u6bb5178"
      },
      "geometry": { "type": "Point", "coordinates": [121.5939, 25.0836] }
    },
    {
      "type": "Feature",
      "properties": {
        "addr": "\u53f0\u5317\u5e02\u5167\u6e56\u5340\u820a\u5b97\u8def1\u6bb5268\u865f"
      },
      "geometry": { "type": "Point", "coordinates": [121.5761, 25.064] }
    },
    {
      "type": "Feature",
      "properties": {
        "addr": "\u53f0\u5317\u5e02\u5167\u6e56\u5340\u5167\u6e56\u8def3\u6bb572\u5df761\u865f"
      },
      "geometry": { "type": "Point", "coordinates": [121.5911, 25.0883] }
    },
    {
      "type": "Feature",
      "properties": {
        "addr": "\u53f0\u5317\u5e02\u5167\u6e56\u5340\u820a\u5b97\u8def1\u6bb5128\u865f"
      },
      "geometry": { "type": "Point", "coordinates": [121.5783, 25.061] }
    },
    {
      "type": "Feature",
      "properties": {
        "addr": "\u53f0\u5317\u5e02\u5167\u6e56\u5340\u661f\u96f2\u8857150\u5df726"
      },
      "geometry": { "type": "Point", "coordinates": [121.5962, 25.0795] }
    },
    {
      "type": "Feature",
      "properties": {
        "addr": "\u53f0\u5317\u5e02\u5167\u6e56\u5340\u820a\u5b97\u8def1\u6bb5188\u865f"
      },
      "geometry": { "type": "Point", "coordinates": [121.5769, 25.0629] }
    },
    {
      "type": "Feature",
      "properties": {
        "addr": "\u53f0\u5317\u5e02\u5167\u6e56\u5340\u661f\u96f2\u8857168\u5df729"
      },
      "geometry": { "type": "Point", "coordinates": [121.597, 25.08] }
    },
    {
      "type": "Feature",
      "properties": {
        "addr": "\u53f0\u5317\u5e02\u5167\u6e56\u5340\u6c11\u6b0a\u6771\u8def6\u6bb5280\u5df719\u5f041"
      },
      "geometry": { "type": "Point", "coordinates": [121.6051, 25.0717] }
    },
    {
      "type": "Feature",
      "properties": {
        "addr": "\u53f0\u5317\u5e02\u5167\u6e56\u5340\u6210\u529f\u8def3\u6bb588"
      },
      "geometry": { "type": "Point", "coordinates": [121.5894, 25.0786] }
    },
    {
      "type": "Feature",
      "properties": {
        "addr": "\u53f0\u5317\u5e02\u5167\u6e56\u5340\u5824\u9802\u5927\u90531\u6bb5331\u865f"
      },
      "geometry": { "type": "Point", "coordinates": [121.5729, 25.0627] }
    },
    {
      "type": "Feature",
      "properties": {
        "addr": "\u53f0\u5317\u5e02\u5167\u6e56\u5340\u6210\u529f\u8def2\u6bb5365\u865f"
      },
      "geometry": { "type": "Point", "coordinates": [121.5901, 25.0737] }
    },
    {
      "type": "Feature",
      "properties": {
        "addr": "\u53f0\u5317\u5e02\u5167\u6e56\u5340\u6210\u529f\u8def5\u6bb5420\u5df726-28\u865f"
      },
      "geometry": { "type": "Point", "coordinates": [121.6088, 25.0759] }
    },
    {
      "type": "Feature",
      "properties": {
        "addr": "\u53f0\u5317\u5e02\u5167\u6e56\u5340\u91d1\u6e56\u8def79\u865f"
      },
      "geometry": { "type": "Point", "coordinates": [121.5968, 25.0814] }
    },
    {
      "type": "Feature",
      "properties": {
        "addr": "\u53f0\u5317\u5e02\u5167\u6e56\u5340\u6c11\u6b0a\u6771\u8def6\u6bb5296\u5df776"
      },
      "geometry": { "type": "Point", "coordinates": [121.6105, 25.0692] }
    },
    {
      "type": "Feature",
      "properties": {
        "addr": "\u53f0\u5317\u5e02\u5167\u6e56\u5340\u6210\u529f\u8def2\u6bb5325\u865f"
      },
      "geometry": { "type": "Point", "coordinates": [121.5905, 25.0709] }
    },
    {
      "type": "Feature",
      "properties": {
        "addr": "\u53f0\u5317\u5e02\u5167\u6e56\u5340\u6c11\u5584\u885788\u865f"
      },
      "geometry": { "type": "Point", "coordinates": [121.5754, 25.06] }
    },
    {
      "type": "Feature",
      "properties": {
        "addr": "\u53f0\u5317\u5e02\u5167\u6e56\u5340\u967d\u5149\u885772-1\u865f1\u6a13"
      },
      "geometry": { "type": "Point", "coordinates": [121.5862, 25.0762] }
    },
    {
      "type": "Feature",
      "properties": {
        "addr": "\u53f0\u5317\u5e02\u5167\u6e56\u5340\u6c11\u6b0a\u6771\u8def6\u6bb5180\u5df742\u5f046\u865f"
      },
      "geometry": { "type": "Point", "coordinates": [121.5923, 25.0673] }
    },
    {
      "type": "Feature",
      "properties": {
        "addr": "\u53f0\u5317\u5e02\u5167\u6e56\u5340\u6210\u529f\u8def4\u6bb532\u865f"
      },
      "geometry": { "type": "Point", "coordinates": [121.5917, 25.0817] }
    },
    {
      "type": "Feature",
      "properties": {
        "addr": "\u53f0\u5317\u5e02\u5167\u6e56\u5340\u6210\u529f\u8def4\u6bb5143\u865f"
      },
      "geometry": { "type": "Point", "coordinates": [121.5936, 25.0828] }
    },
    {
      "type": "Feature",
      "properties": {
        "addr": "\u53f0\u5317\u5e02\u5167\u6e56\u5340\u5167\u6e56\u8def2\u6bb5253\u5df71\u5f043\u865fB1"
      },
      "geometry": { "type": "Point", "coordinates": [121.5902, 25.0824] }
    },
    {
      "type": "Feature",
      "properties": {
        "addr": "\u53f0\u5317\u5e02\u5167\u6e56\u5340\u6c11\u5584\u8857205\u865f"
      },
      "geometry": { "type": "Point", "coordinates": [121.5746, 25.0639] }
    },
    {
      "type": "Feature",
      "properties": {
        "addr": "\u53f0\u5317\u5e02\u5167\u6e56\u5340\u5167\u6e56\u8def2\u6bb5360\u865f"
      },
      "geometry": { "type": "Point", "coordinates": [121.5906, 25.0821] }
    },
    {
      "type": "Feature",
      "properties": {
        "addr": "\u53f0\u5317\u5e02\u5167\u6e56\u5340\u5167\u6e56\u8def1\u6bb5256\u865f"
      },
      "geometry": { "type": "Point", "coordinates": [121.5673, 25.082] }
    },
    {
      "type": "Feature",
      "properties": {
        "addr": "\u53f0\u5317\u5e02\u5167\u6e56\u5340\u5824\u9802\u5927\u9053\u8def2\u6bb5235-241\u865f"
      },
      "geometry": { "type": "Point", "coordinates": [121.5814, 25.0425] }
    },
    {
      "type": "Feature",
      "properties": {
        "addr": "\u53f0\u5317\u5e02\u5167\u6e56\u5340\u6210\u529f\u8def2\u6bb5456\u5df71\u865f"
      },
      "geometry": { "type": "Point", "coordinates": [121.5873, 25.0746] }
    },
    {
      "type": "Feature",
      "properties": {
        "addr": "\u53f0\u5317\u5e02\u5167\u6e56\u5340\u5927\u6e56\u8857125\u865f"
      },
      "geometry": { "type": "Point", "coordinates": [121.6046, 25.0935] }
    },
    {
      "type": "Feature",
      "properties": {
        "addr": "\u53f0\u5317\u5e02\u5167\u6e56\u5340\u5167\u6e56\u8def1\u6bb5663\u865f"
      },
      "geometry": { "type": "Point", "coordinates": [121.5756, 25.0801] }
    },
    {
      "type": "Feature",
      "properties": {
        "addr": "\u53f0\u5317\u5e02\u5167\u6e56\u5340\u5eb7\u5be7\u8def3\u6bb516\u865f"
      },
      "geometry": { "type": "Point", "coordinates": [121.6071, 25.0726] }
    },
    {
      "type": "Feature",
      "properties": {
        "addr": "\u53f0\u5317\u5e02\u5167\u6e56\u5340\u6587\u5fb7\u8def214\u865f"
      },
      "geometry": { "type": "Point", "coordinates": [121.5847, 25.0783] }
    },
    {
      "type": "Feature",
      "properties": {
        "addr": "\u53f0\u5317\u5e02\u5167\u6e56\u5340\u6210\u529f\u8def4\u6bb591\u865f"
      },
      "geometry": { "type": "Point", "coordinates": [121.5931, 25.0825] }
    },
    {
      "type": "Feature",
      "properties": {
        "addr": "\u53f0\u5317\u5e02\u5167\u6e56\u5340\u5eb7\u5be7\u8def3\u6bb5235\u865f"
      },
      "geometry": { "type": "Point", "coordinates": [121.6116, 25.0671] }
    },
    {
      "type": "Feature",
      "properties": {
        "addr": "\u53f0\u5317\u5e02\u5167\u6e56\u5340\u6210\u529f\u8def5\u6bb511\u865f"
      },
      "geometry": { "type": "Point", "coordinates": [121.6026, 25.0833] }
    },
    {
      "type": "Feature",
      "properties": {
        "addr": "\u53f0\u5317\u5e02\u5167\u6e56\u5340\u91d1\u9f8d\u8def136-1\u865fB2-6\u6a13"
      },
      "geometry": { "type": "Point", "coordinates": [121.59, 25.0858] }
    },
    {
      "type": "Feature",
      "properties": {
        "addr": "\u53f0\u5317\u5e02\u5167\u6e56\u5340\u661f\u96f2\u885716\u5df763\u865f"
      },
      "geometry": { "type": "Point", "coordinates": [121.592, 25.0771] }
    },
    {
      "type": "Feature",
      "properties": {
        "addr": "\u53f0\u5317\u5e02\u5167\u6e56\u5340\u6210\u529f\u8def4\u6bb568\u865fB1\u6a13"
      },
      "geometry": { "type": "Point", "coordinates": [121.5929, 25.0827] }
    },
    {
      "type": "Feature",
      "properties": {
        "addr": "\u53f0\u5317\u5e02\u5167\u6e56\u5340\u820a\u5b97\u8def\u4e8c\u6bb5105\u865f3\u6a13"
      },
      "geometry": { "type": "Point", "coordinates": [121.5751, 25.0686] }
    },
    {
      "type": "Feature",
      "properties": {
        "addr": "\u53f0\u5317\u5e02\u5167\u6e56\u5340\u6210\u529f\u8def4\u6bb568\u865fB2\u6a13"
      },
      "geometry": { "type": "Point", "coordinates": [121.5929, 25.0827] }
    },
    {
      "type": "Feature",
      "properties": {
        "addr": "\u53f0\u5317\u5e02\u5167\u6e56\u5340\u5927\u6e56\u8857121\u865f"
      },
      "geometry": { "type": "Point", "coordinates": [121.6045, 25.0933] }
    },
    {
      "type": "Feature",
      "properties": {
        "addr": "\u53f0\u5317\u5e02\u5167\u6e56\u5340\u5eb7\u5be7\u8def3\u6bb572\u865f3"
      },
      "geometry": { "type": "Point", "coordinates": [121.6113, 25.0702] }
    },
    {
      "type": "Feature",
      "properties": {
        "addr": "\u53f0\u5317\u5e02\u5167\u6e56\u5340\u5167\u6e56\u8def1\u6bb5411\u5df766\u865f"
      },
      "geometry": { "type": "Point", "coordinates": [121.5711, 25.0839] }
    },
    {
      "type": "Feature",
      "properties": {
        "addr": "\u53f0\u5317\u5e02\u5167\u6e56\u5340\u6210\u529f\u8def4\u6bb5188"
      },
      "geometry": { "type": "Point", "coordinates": [121.5945, 25.0841] }
    },
    {
      "type": "Feature",
      "properties": {
        "addr": "\u53f0\u5317\u5e02\u5167\u6e56\u5340\u74b0\u5c71\u8def1\u6bb526\u865f"
      },
      "geometry": { "type": "Point", "coordinates": [121.5645, 25.0849] }
    },
    {
      "type": "Feature",
      "properties": {
        "addr": "\u53f0\u5317\u5e02\u677e\u5c71\u5340\u6566\u5316\u5317\u8def6\u865f"
      },
      "geometry": { "type": "Point", "coordinates": [121.5486, 25.0504] }
    },
    {
      "type": "Feature",
      "properties": {
        "addr": "\u53f0\u5317\u5e02\u677e\u5c71\u5340\u5e02\u6c11\u5927\u90534\u6bb539-2\u865f"
      },
      "geometry": { "type": "Point", "coordinates": [121.5448, 25.0452] }
    },
    {
      "type": "Feature",
      "properties": {
        "addr": "\u53f0\u5317\u5e02\u677e\u5c71\u5340\u5357\u4eac\u6771\u8def3\u6bb5337\u865f"
      },
      "geometry": { "type": "Point", "coordinates": [121.548, 25.052] }
    },
    {
      "type": "Feature",
      "properties": {
        "addr": "\u53f0\u5317\u5e02\u5167\u6e56\u5340\u6c11\u6b0a\u6771\u8def6\u6bb5296\u5df7121\u865fB2"
      },
      "geometry": { "type": "Point", "coordinates": [121.6093, 25.0698] }
    },
    {
      "type": "Feature",
      "properties": {
        "addr": "\u53f0\u5317\u5e02\u677e\u5c71\u5340\u5357\u4eac\u6771\u8def5\u6bb5162\u865f3\u6a13"
      },
      "geometry": { "type": "Point", "coordinates": [121.5631, 25.0512] }
    },
    {
      "type": "Feature",
      "properties": {
        "addr": "\u53f0\u5317\u5e02\u677e\u5c71\u5340\u6c11\u751f\u6771\u8def5\u6bb5198~206\u865f"
      },
      "geometry": { "type": "Point", "coordinates": [121.5645, 25.0587] }
    },
    {
      "type": "Feature",
      "properties": {
        "addr": "\u53f0\u5317\u5e02\u677e\u5c71\u5340\u6566\u5316\u5317\u8def199\u865f"
      },
      "geometry": { "type": "Point", "coordinates": [121.5497, 25.0555] }
    },
    {
      "type": "Feature",
      "properties": {
        "addr": "\u53f0\u5317\u5e02\u5167\u6e56\u5340\u6210\u529f\u8def5\u6bb52\u865fB1"
      },
      "geometry": { "type": "Point", "coordinates": [121.6009, 25.0847] }
    },
    {
      "type": "Feature",
      "properties": {
        "addr": "\u53f0\u5317\u5e02\u677e\u5c71\u5340\u5065\u5eb7\u8def131\u865f"
      },
      "geometry": { "type": "Point", "coordinates": [121.5577, 25.0539] }
    },
    {
      "type": "Feature",
      "properties": {
        "addr": "\u53f0\u5317\u5e02\u677e\u5c71\u5340\u5149\u5fa9\u5317\u8def66\u865f"
      },
      "geometry": { "type": "Point", "coordinates": [121.5577, 25.0499] }
    },
    {
      "type": "Feature",
      "properties": {
        "addr": "\u53f0\u5317\u5e02\u5167\u6e56\u5340\u91d1\u6e56\u8def125\u865f"
      },
      "geometry": { "type": "Point", "coordinates": [121.5981, 25.0803] }
    },
    {
      "type": "Feature",
      "properties": {
        "addr": "\u53f0\u5317\u5e02\u677e\u5c71\u5340\u5357\u4eac\u6771\u8def5\u6bb5356\u865f2\u6a13"
      },
      "geometry": { "type": "Point", "coordinates": [121.5697, 25.0511] }
    },
    {
      "type": "Feature",
      "properties": {
        "addr": "\u53f0\u5317\u5e02\u677e\u5c71\u5340\u9952\u6cb3\u8857"
      },
      "geometry": { "type": "Point", "coordinates": [121.575, 25.0505] }
    },
    {
      "type": "Feature",
      "properties": {
        "addr": "\u53f0\u5317\u5e02\u5167\u6e56\u5340\u5167\u6e56\u8def3\u6bb560\u5df727\u865f"
      },
      "geometry": { "type": "Point", "coordinates": [121.593, 25.0883] }
    },
    {
      "type": "Feature",
      "properties": {
        "addr": "\u53f0\u5317\u5e02\u677e\u5c71\u5340\u6566\u5316\u5357\u8def1\u6bb57\u865f4\u6a13\u4e4b1"
      },
      "geometry": { "type": "Point", "coordinates": [121.5493, 25.0469] }
    },
    {
      "type": "Feature",
      "properties": {
        "addr": "\u53f0\u5317\u5e02\u5167\u6e56\u5340\u6587\u5fb7\u8def210\u5df730\u5f0481\u865f"
      },
      "geometry": { "type": "Point", "coordinates": [121.5851, 25.0771] }
    },
    {
      "type": "Feature",
      "properties": {
        "addr": "\u53f0\u5317\u5e02\u677e\u5c71\u5340\u5357\u4eac\u6771\u8def3\u6bb5337\u865f14"
      },
      "geometry": { "type": "Point", "coordinates": [121.548, 25.052] }
    },
    {
      "type": "Feature",
      "properties": {
        "addr": "\u53f0\u5317\u5e02\u677e\u5c71\u5340\u5fa9\u8208\u5357\u8def1\u6bb539\u865f"
      },
      "geometry": { "type": "Point", "coordinates": [121.5442, 25.0462] }
    },
    {
      "type": "Feature",
      "properties": {
        "addr": "\u53f0\u5317\u5e02\u677e\u5c71\u5340\u5357\u4eac\u6771\u8def\u56db\u6bb510-1\u865f"
      },
      "geometry": { "type": "Point", "coordinates": [121.5525, 25.0514] }
    },
    {
      "type": "Feature",
      "properties": {
        "addr": "\u53f0\u5317\u5e02\u677e\u5c71\u5340\u6ff1\u6c5f\u8857457?\u5df7"
      },
      "geometry": { "type": "Point", "coordinates": [121.5643, 25.0704] }
    },
    {
      "type": "Feature",
      "properties": {
        "addr": "\u53f0\u5317\u5e02\u677e\u5c71\u5340\u5357\u4eac\u6771\u8def4\u6bb52\u865f"
      },
      "geometry": { "type": "Point", "coordinates": [121.55, 25.0514] }
    },
    {
      "type": "Feature",
      "properties": {
        "addr": "\u53f0\u5317\u5e02\u677e\u5c71\u5340\u4e09\u6c11\u8def160\u865f"
      },
      "geometry": { "type": "Point", "coordinates": [121.5635, 25.0617] }
    },
    {
      "type": "Feature",
      "properties": {
        "addr": "\u53f0\u5317\u5e02\u677e\u5c71\u5340\u6c11\u751f\u6771\u8def3\u6bb5156\u865f"
      },
      "geometry": { "type": "Point", "coordinates": [121.5477, 25.0574] }
    },
    {
      "type": "Feature",
      "properties": {
        "addr": "\u53f0\u5317\u5e02\u677e\u5c71\u5340\u5357\u4eac\u6771\u8def3\u6bb5253\u865f"
      },
      "geometry": { "type": "Point", "coordinates": [121.5441, 25.052] }
    },
    {
      "type": "Feature",
      "properties": {
        "addr": "\u53f0\u5317\u5e02\u677e\u5c71\u5340\u516b\u5fb7\u8def2\u6bb5242\u865f"
      },
      "geometry": { "type": "Point", "coordinates": [121.5443, 25.0476] }
    },
    {
      "type": "Feature",
      "properties": {
        "addr": "\u53f0\u5317\u5e02\u677e\u5c71\u5340\u6566\u5316\u5317\u8def338\u865f"
      },
      "geometry": { "type": "Point", "coordinates": [121.5519, 25.0632] }
    },
    {
      "type": "Feature",
      "properties": {
        "addr": "\u53f0\u5317\u5e02\u677e\u5c71\u5340\u9577\u5b89\u6771\u8def\u4e8c\u6bb5219?\u865fB1"
      },
      "geometry": { "type": "Point", "coordinates": [121.5448, 25.0484] }
    },
    {
      "type": "Feature",
      "properties": {
        "addr": "\u53f0\u5317\u5e02\u677e\u5c71\u5340\u516b\u5fb7\u8def4\u6bb5203~205\u865f"
      },
      "geometry": { "type": "Point", "coordinates": [121.5638, 25.0489] }
    },
    {
      "type": "Feature",
      "properties": {
        "addr": "\u53f0\u5317\u5e02\u677e\u5c71\u5340\u516b\u5fb7\u8def4\u6bb5700\u865f"
      },
      "geometry": { "type": "Point", "coordinates": [121.5776, 25.05] }
    },
    {
      "type": "Feature",
      "properties": {
        "addr": "\u53f0\u5317\u5e02\u677e\u5c71\u5340\u6566\u5316\u5357\u8def1\u6bb57\u865f4\u6a13"
      },
      "geometry": { "type": "Point", "coordinates": [121.5493, 25.0469] }
    },
    {
      "type": "Feature",
      "properties": {
        "addr": "\u53f0\u5317\u5e02\u677e\u5c71\u5340\u6566\u5316\u5317\u8def340\u4e4b9\u865f"
      },
      "geometry": { "type": "Point", "coordinates": [121.552, 25.0619] }
    },
    {
      "type": "Feature",
      "properties": {
        "addr": "\u53f0\u5317\u5e02\u677e\u5c71\u5340\u5fa9\u8208\u5317\u8def15-2\u865f1\u6a13"
      },
      "geometry": { "type": "Point", "coordinates": [121.5442, 25.0488] }
    },
    {
      "type": "Feature",
      "properties": {
        "addr": "\u53f0\u5317\u5e02\u677e\u5c71\u5340\u6566\u5316\u5357\u8def1\u6bb577\u865f"
      },
      "geometry": { "type": "Point", "coordinates": [121.5493, 25.0451] }
    },
    {
      "type": "Feature",
      "properties": {
        "addr": "\u53f0\u5317\u5e02\u677e\u5c71\u5340\u5065\u5eb7\u8def399\u865f1"
      },
      "geometry": { "type": "Point", "coordinates": [121.5688, 25.0546] }
    },
    {
      "type": "Feature",
      "properties": {
        "addr": "\u53f0\u5317\u5e02\u677e\u5c71\u5340\u9577\u5b89\u6771\u8def2\u6bb5225\u865f"
      },
      "geometry": { "type": "Point", "coordinates": [121.5453, 25.0484] }
    },
    {
      "type": "Feature",
      "properties": {
        "addr": "\u53f0\u5317\u5e02\u677e\u5c71\u5340\u5357\u4eac\u6771\u8def5\u6bb5237\u865f"
      },
      "geometry": { "type": "Point", "coordinates": [121.5649, 25.0516] }
    },
    {
      "type": "Feature",
      "properties": {
        "addr": "\u53f0\u5317\u5e02\u677e\u5c71\u5340\u5fa9\u8208\u5317\u8def1\u865f5\u6a13"
      },
      "geometry": { "type": "Point", "coordinates": [121.5442, 25.048] }
    },
    {
      "type": "Feature",
      "properties": {
        "addr": "\u53f0\u5317\u5e02\u677e\u5c71\u5340\u64ab\u9060\u8857395\u5df71\u865fB1\u6a13"
      },
      "geometry": { "type": "Point", "coordinates": [121.5657, 25.0653] }
    },
    {
      "type": "Feature",
      "properties": {
        "addr": "\u53f0\u5317\u5e02\u677e\u5c71\u5340\u6566\u5316\u5317\u8def158\u865f"
      },
      "geometry": { "type": "Point", "coordinates": [121.5484, 25.0553] }
    },
    {
      "type": "Feature",
      "properties": {
        "addr": "\u53f0\u5317\u5e02\u677e\u5c71\u5340\u516b\u5fb7\u8def\u56db\u6bb5520\u865f2\u6a13"
      },
      "geometry": { "type": "Point", "coordinates": [121.5711, 25.0497] }
    },
    {
      "type": "Feature",
      "properties": {
        "addr": "\u53f0\u5317\u5e02\u677e\u5c71\u5340\u6566\u5316\u5317\u8def100\u865f"
      },
      "geometry": { "type": "Point", "coordinates": [121.5486, 25.0528] }
    },
    {
      "type": "Feature",
      "properties": {
        "addr": "\u53f0\u5317\u5e02\u677e\u5c71\u5340\u5fa9\u8208\u5357\u8def1\u6bb529\u865f"
      },
      "geometry": { "type": "Point", "coordinates": [121.5443, 25.0465] }
    },
    {
      "type": "Feature",
      "properties": {
        "addr": "\u53f0\u5317\u5e02\u677e\u5c71\u5340\u5357\u4eac\u6771\u8def5\u6bb5324-1\u865f2"
      },
      "geometry": { "type": "Point", "coordinates": [121.5683, 25.0511] }
    },
    {
      "type": "Feature",
      "properties": {
        "addr": "\u53f0\u5317\u5e02\u4e2d\u5c71\u5340\u4e2d\u5c71\u5340\u6c11\u751f\u897f\u8def\u4e09\u6bb567\u865f"
      },
      "geometry": { "type": "Point", "coordinates": [121.5217, 25.0579] }
    },
    {
      "type": "Feature",
      "properties": {
        "addr": "\u53f0\u5317\u5e02\u677e\u5c71\u5340\u6c11\u751f\u6771\u8def5\u6bb5190\u865f3\u6a13"
      },
      "geometry": { "type": "Point", "coordinates": [121.5642, 25.0587] }
    },
    {
      "type": "Feature",
      "properties": {
        "addr": "\u53f0\u5317\u5e02\u4e2d\u5c71\u5340\u4e2d\u5c71\u5340\u6c11\u6b0a\u6771\u8def1\u6bb569\u865f"
      },
      "geometry": { "type": "Point", "coordinates": [121.5263, 25.0629] }
    },
    {
      "type": "Feature",
      "properties": {
        "addr": "\u53f0\u5317\u5e02\u4e2d\u5c71\u5340\u5357\u4eac\u6771\u8def2\u6bb586\u865f"
      },
      "geometry": { "type": "Point", "coordinates": [121.5311, 25.0519] }
    },
    {
      "type": "Feature",
      "properties": {
        "addr": "\u53f0\u5317\u5e02\u4e2d\u5c71\u5340\u4e2d\u5c71\u5340\u516b\u5fb7\u8def2\u6bb5115\u865f"
      },
      "geometry": { "type": "Point", "coordinates": [121.537, 25.0463] }
    },
    {
      "type": "Feature",
      "properties": {
        "addr": "\u53f0\u5317\u5e02\u4e2d\u5c71\u5340\u4e2d\u5c71\u5317\u8def2\u6bb539\u5df71\u865f"
      },
      "geometry": { "type": "Point", "coordinates": [121.5228, 25.0525] }
    },
    {
      "type": "Feature",
      "properties": {
        "addr": "\u53f0\u5317\u5e02\u4e2d\u5c71\u5340\u5357\u4eac\u897f\u8def12\u865f"
      },
      "geometry": { "type": "Point", "coordinates": [121.5212, 25.0523] }
    },
    {
      "type": "Feature",
      "properties": {
        "addr": "\u53f0\u5317\u5e02\u4e2d\u5c71\u5340\u690d\u798f\u8def200\u865f"
      },
      "geometry": { "type": "Point", "coordinates": [121.5599, 25.0833] }
    },
    {
      "type": "Feature",
      "properties": {
        "addr": "\u53f0\u5317\u5e02\u4e2d\u5c71\u5340\u907c\u5be7\u8857139\u865f"
      },
      "geometry": { "type": "Point", "coordinates": [121.5421, 25.0523] }
    },
    {
      "type": "Feature",
      "properties": {
        "addr": "\u53f0\u5317\u5e02\u4e2d\u5c71\u5340\u6c11\u6b0a\u897f\u8def72\u865f"
      },
      "geometry": { "type": "Point", "coordinates": [121.5195, 25.0626] }
    },
    {
      "type": "Feature",
      "properties": {
        "addr": "\u53f0\u5317\u5e02\u4e2d\u5c71\u5340\u5317\u5b89\u8def"
      },
      "geometry": { "type": "Point", "coordinates": [121.5323, 25.078] }
    },
    {
      "type": "Feature",
      "properties": {
        "addr": "\u53f0\u5317\u5e02\u4e2d\u5c71\u5340\u65b0\u751f\u5317\u8def2\u6bb5101\u5df72\u865f"
      },
      "geometry": { "type": "Point", "coordinates": [121.5284, 25.0573] }
    },
    {
      "type": "Feature",
      "properties": {
        "addr": "\u53f0\u5317\u5e02\u4e2d\u5c71\u5340\u6c11\u6b0a\u6771\u8def1\u6bb571\u865f"
      },
      "geometry": { "type": "Point", "coordinates": [121.5269, 25.0628] }
    },
    {
      "type": "Feature",
      "properties": {
        "addr": "\u53f0\u5317\u5e02\u4e2d\u5c71\u5340\u5357\u4eac\u897f\u8def14\u865f"
      },
      "geometry": { "type": "Point", "coordinates": [121.5206, 25.0524] }
    },
    {
      "type": "Feature",
      "properties": {
        "addr": "\u53f0\u5317\u5e02\u4e2d\u5c71\u5340\u5357\u4eac\u897f\u8def16\u865f"
      },
      "geometry": { "type": "Point", "coordinates": [121.5204, 25.0527] }
    },
    {
      "type": "Feature",
      "properties": {
        "addr": "\u53f0\u5317\u5e02\u4e2d\u5c71\u5340\u6c11\u6b0a\u6771\u8def3\u6bb546\u865f"
      },
      "geometry": { "type": "Point", "coordinates": [121.5417, 25.0622] }
    },
    {
      "type": "Feature",
      "properties": {
        "addr": "\u53f0\u5317\u5e02\u4e2d\u5c71\u5340\u516b\u5fb7\u8def2\u6bb5306\u865f"
      },
      "geometry": { "type": "Point", "coordinates": [121.5425, 25.0469] }
    },
    {
      "type": "Feature",
      "properties": {
        "addr": "\u53f0\u5317\u5e02\u4e2d\u5c71\u5340\u677e\u6c5f\u8def90\u5df73\u865f4"
      },
      "geometry": { "type": "Point", "coordinates": [121.5321, 25.0507] }
    },
    {
      "type": "Feature",
      "properties": {
        "addr": "\u53f0\u5317\u5e02\u4e2d\u5c71\u5340\u8fb2\u5b89\u88572\u5df7\u5167"
      },
      "geometry": { "type": "Point", "coordinates": [121.5226, 25.0649] }
    },
    {
      "type": "Feature",
      "properties": {
        "addr": "\u53f0\u5317\u5e02\u4e2d\u5c71\u5340\u6c11\u6b0a\u6771\u8def2\u6bb592\u5df72-1\u865f"
      },
      "geometry": { "type": "Point", "coordinates": [121.5316, 25.0615] }
    },
    {
      "type": "Feature",
      "properties": {
        "addr": "\u53f0\u5317\u5e02\u4e2d\u5c71\u5340\u677e\u6c5f\u8def126\u865fB1"
      },
      "geometry": { "type": "Point", "coordinates": [121.5328, 25.0519] }
    },
    {
      "type": "Feature",
      "properties": {
        "addr": "\u53f0\u5317\u5e02\u4e2d\u5c71\u5340\u6797\u68ee\u5317\u8def530\u865f"
      },
      "geometry": { "type": "Point", "coordinates": [121.5255, 25.0634] }
    },
    {
      "type": "Feature",
      "properties": {
        "addr": "\u53f0\u5317\u5e02\u4e2d\u5c71\u5340\u5fa9\u8208\u5317\u8def\u7a7f\u8d8a\u677e\u5c71\u6a5f\u5834\u5730\u4e0b\u9053"
      },
      "geometry": { "type": "Point", "coordinates": [121.544, 25.0569] }
    },
    {
      "type": "Feature",
      "properties": {
        "addr": "\u53f0\u5317\u5e02\u4e2d\u5c71\u5340\u6797\u68ee\u5317\u8def561\u865f"
      },
      "geometry": { "type": "Point", "coordinates": [121.5258, 25.0645] }
    },
    {
      "type": "Feature",
      "properties": {
        "addr": "\u53f0\u5317\u5e02\u4e2d\u5c71\u5340\u677e\u6c5f\u8def316\u865f"
      },
      "geometry": { "type": "Point", "coordinates": [121.5328, 25.0605] }
    },
    {
      "type": "Feature",
      "properties": {
        "addr": "\u53f0\u5317\u5e02\u4e2d\u5c71\u5340\u5317\u5b89\u8def798\u865f"
      },
      "geometry": { "type": "Point", "coordinates": [121.5555, 25.0848] }
    },
    {
      "type": "Feature",
      "properties": {
        "addr": "\u53f0\u5317\u5e02\u4e2d\u5c71\u5340\u5357\u4eac\u6771\u8def2\u6bb53\u865f"
      },
      "geometry": { "type": "Point", "coordinates": [121.5281, 25.0523] }
    },
    {
      "type": "Feature",
      "properties": {
        "addr": "\u53f0\u5317\u5e02\u4e2d\u5c71\u5340\u9326\u5dde\u885715\u865f"
      },
      "geometry": { "type": "Point", "coordinates": [121.5244, 25.0604] }
    },
    {
      "type": "Feature",
      "properties": {
        "addr": "\u53f0\u5317\u5e02\u4e2d\u5c71\u5340\u516b\u5fb7\u8def2\u6bb5251\u865f2\u6a13"
      },
      "geometry": { "type": "Point", "coordinates": [121.541, 25.047] }
    },
    {
      "type": "Feature",
      "properties": {
        "addr": "\u53f0\u5317\u5e02\u4e2d\u5c71\u5340\u677e\u6c5f\u8def199\u865f"
      },
      "geometry": { "type": "Point", "coordinates": [121.5334, 25.0569] }
    },
    {
      "type": "Feature",
      "properties": {
        "addr": "\u53f0\u5317\u5e02\u4e2d\u5c71\u5340\u6c11\u751f\u897f\u8def30\u865f2\u6a13"
      },
      "geometry": { "type": "Point", "coordinates": [121.5216, 25.0576] }
    },
    {
      "type": "Feature",
      "properties": {
        "addr": "\u53f0\u5317\u5e02\u4e2d\u5c71\u5340\u4e2d\u5c71\u5317\u8def2\u6bb592\u865f"
      },
      "geometry": { "type": "Point", "coordinates": [121.5226, 25.0589] }
    },
    {
      "type": "Feature",
      "properties": {
        "addr": "\u53f0\u5317\u5e02\u4e2d\u5c71\u5340\u6797\u68ee\u5317\u8def312\u865f"
      },
      "geometry": { "type": "Point", "coordinates": [121.5253, 25.0565] }
    },
    {
      "type": "Feature",
      "properties": {
        "addr": "\u53f0\u5317\u5e02\u4e2d\u5c71\u5340\u6c11\u65cf\u6771\u8def512\u5df714\u865f"
      },
      "geometry": { "type": "Point", "coordinates": [121.5419, 25.0674] }
    },
    {
      "type": "Feature",
      "properties": {
        "addr": "\u53f0\u5317\u5e02\u4e2d\u5c71\u5340\u656c\u696d\u4e09\u8def20\u865f"
      },
      "geometry": { "type": "Point", "coordinates": [121.5567, 25.0829] }
    },
    {
      "type": "Feature",
      "properties": {
        "addr": "\u53f0\u5317\u5e02\u4e2d\u5c71\u5340\u5357\u4eac\u6771\u8def3\u6bb5235\u865fB1"
      },
      "geometry": { "type": "Point", "coordinates": [121.5438, 25.052] }
    },
    {
      "type": "Feature",
      "properties": {
        "addr": "\u53f0\u5317\u5e02\u4e2d\u5c71\u5340\u9577\u5b89\u6771\u8def1\u6bb563\u865f4\u6a13"
      },
      "geometry": { "type": "Point", "coordinates": [121.5272, 25.0487] }
    },
    {
      "type": "Feature",
      "properties": {
        "addr": "\u53f0\u5317\u5e02\u4e2d\u5c71\u5340\u6a02\u7fa4\u4e8c\u8def199\u865f"
      },
      "geometry": { "type": "Point", "coordinates": [121.5589, 25.0805] }
    },
    {
      "type": "Feature",
      "properties": {
        "addr": "\u53f0\u5317\u5e02\u4e2d\u5c71\u5340\u656c\u696d\u4e09\u8def160\u865f"
      },
      "geometry": { "type": "Point", "coordinates": [121.5566, 25.0795] }
    },
    {
      "type": "Feature",
      "properties": {
        "addr": "\u53f0\u5317\u5e02\u4e2d\u5c71\u5340\u677e\u6c5f\u8def380\u865f"
      },
      "geometry": { "type": "Point", "coordinates": [121.5329, 25.0634] }
    },
    {
      "type": "Feature",
      "properties": {
        "addr": "\u53f0\u5317\u5e02\u4e2d\u5c71\u5340\u6a02\u7fa4\u4e8c\u8def55\u865f"
      },
      "geometry": { "type": "Point", "coordinates": [121.5538, 25.0803] }
    },
    {
      "type": "Feature",
      "properties": {
        "addr": "\u53f0\u5317\u5e02\u4e2d\u5c71\u5340\u5357\u4eac\u897f\u8def16\u865fB1"
      },
      "geometry": { "type": "Point", "coordinates": [121.5204, 25.0527] }
    },
    {
      "type": "Feature",
      "properties": {
        "addr": "\u53f0\u5317\u5e02\u4e2d\u5c71\u5340\u5927\u76f4\u88571\u865f"
      },
      "geometry": { "type": "Point", "coordinates": [121.547, 25.0803] }
    },
    {
      "type": "Feature",
      "properties": {
        "addr": "\u53f0\u5317\u5e02\u4e2d\u5c71\u5340\u9326\u5dde\u88574\u5df71\u865f2\u6a13"
      },
      "geometry": { "type": "Point", "coordinates": [121.5236, 25.0599] }
    },
    {
      "type": "Feature",
      "properties": {
        "addr": "\u53f0\u5317\u5e02\u4e2d\u5c71\u5340\u516b\u5fb7\u8def\u4e8c\u6bb5260\u865f11\u6a13"
      },
      "geometry": { "type": "Point", "coordinates": [121.5409, 25.0467] }
    },
    {
      "type": "Feature",
      "properties": {
        "addr": "\u53f0\u5317\u5e02\u4e2d\u5c71\u5340\u4e2d\u5c71\u5317\u8def4\u6bb51\u5df71\u865f"
      },
      "geometry": { "type": "Point", "coordinates": [121.5246, 25.0776] }
    },
    {
      "type": "Feature",
      "properties": {
        "addr": "\u53f0\u5317\u5e02\u4e2d\u5c71\u5340\u9f8d\u6c5f\u8def15\u865f4-7\u6a13"
      },
      "geometry": { "type": "Point", "coordinates": [121.5404, 25.0543] }
    },
    {
      "type": "Feature",
      "properties": {
        "addr": "\u53f0\u5317\u5e02\u4e2d\u5c71\u5340\u690d\u798f\u8def286\u5df726\u865f"
      },
      "geometry": { "type": "Point", "coordinates": [121.56, 25.0811] }
    },
    {
      "type": "Feature",
      "properties": {
        "addr": "\u53f0\u5317\u5e02\u4e2d\u5c71\u5340\u5efa\u570b\u5317\u8def2\u6bb5139\u865fB1"
      },
      "geometry": { "type": "Point", "coordinates": [121.5373, 25.0607] }
    },
    {
      "type": "Feature",
      "properties": {
        "addr": "\u53f0\u5317\u5e02\u4e2d\u5c71\u5340\u5357\u4eac\u6771\u8def2\u6bb56\u865fB1"
      },
      "geometry": { "type": "Point", "coordinates": [121.5283, 25.0519] }
    },
    {
      "type": "Feature",
      "properties": {
        "addr": "\u53f0\u5317\u5e02\u4e2d\u5c71\u5340\u4e2d\u5c71\u5317\u8def2\u6bb596\u5df719\u865f3\u6a13"
      },
      "geometry": { "type": "Point", "coordinates": [121.5219, 25.0599] }
    },
    {
      "type": "Feature",
      "properties": {
        "addr": "\u53f0\u5317\u5e02\u4e2d\u5c71\u5340\u6ff1\u6c5f\u88577\u865f\u6c34\u9580"
      },
      "geometry": { "type": "Point", "coordinates": [121.5311, 25.0721] }
    },
    {
      "type": "Feature",
      "properties": {
        "addr": "\u53f0\u5317\u5e02\u4e2d\u5c71\u5340\u9577\u5b89\u6771\u8def1\u6bb563\u865f3\u6a13"
      },
      "geometry": { "type": "Point", "coordinates": [121.5272, 25.0487] }
    },
    {
      "type": "Feature",
      "properties": {
        "addr": "\u53f0\u5317\u5e02\u4e2d\u5c71\u5340\u5357\u4eac\u897f\u8def15\u865f"
      },
      "geometry": { "type": "Point", "coordinates": [121.521, 25.0527] }
    },
    {
      "type": "Feature",
      "properties": {
        "addr": "\u53f0\u5317\u5e02\u4e2d\u5c71\u5340\u6c11\u6b0a\u6771\u8def2\u6bb5146\u865f3\u6a13"
      },
      "geometry": { "type": "Point", "coordinates": [121.5342, 25.0622] }
    },
    {
      "type": "Feature",
      "properties": {
        "addr": "\u53f0\u5317\u5e02\u4e2d\u5c71\u5340\u516b\u5fb7\u8def2\u6bb5100\u865f"
      },
      "geometry": { "type": "Point", "coordinates": [121.5362, 25.0458] }
    },
    {
      "type": "Feature",
      "properties": {
        "addr": "\u53f0\u5317\u5e02\u4e2d\u5c71\u5340\u6ff1\u6c5f\u8857309\u865fB2"
      },
      "geometry": { "type": "Point", "coordinates": [121.5463, 25.0725] }
    },
    {
      "type": "Feature",
      "properties": {
        "addr": "\u53f0\u5317\u5e02\u4e2d\u5c71\u5340\u9577\u5b89\u6771\u8def1\u6bb563\u865f5\u6a13"
      },
      "geometry": { "type": "Point", "coordinates": [121.5272, 25.0487] }
    },
    {
      "type": "Feature",
      "properties": {
        "addr": "\u53f0\u5317\u5e02\u4e2d\u5c71\u5340\u5357\u4eac\u6771\u8def1\u6bb5106\u865f"
      },
      "geometry": { "type": "Point", "coordinates": [121.5264, 25.0519] }
    },
    {
      "type": "Feature",
      "properties": {
        "addr": "\u53f0\u5317\u5e02\u4e2d\u5c71\u5340\u5fa9\u8208\u5317\u8def376\u865f"
      },
      "geometry": { "type": "Point", "coordinates": [121.5439, 25.0608] }
    },
    {
      "type": "Feature",
      "properties": {
        "addr": "\u53f0\u5317\u5e02\u4e2d\u5c71\u5340\u6797\u68ee\u5317\u8def536\u865f"
      },
      "geometry": { "type": "Point", "coordinates": [121.5255, 25.0639] }
    },
    {
      "type": "Feature",
      "properties": {
        "addr": "\u53f0\u5317\u5e02\u4e2d\u5c71\u5340\u9577\u5b89\u6771\u8def1\u6bb563\u865f6\u6a13"
      },
      "geometry": { "type": "Point", "coordinates": [121.5272, 25.0487] }
    },
    {
      "type": "Feature",
      "properties": {
        "addr": "\u53f0\u5317\u5e02\u4e2d\u5c71\u5340\u9152\u6cc9\u88579\u4e4b1\u865f"
      },
      "geometry": { "type": "Point", "coordinates": [121.5198, 25.0707] }
    },
    {
      "type": "Feature",
      "properties": {
        "addr": "\u53f0\u5317\u5e02\u4e2d\u5c71\u5340\u5317\u5b89\u8def780\u865f"
      },
      "geometry": { "type": "Point", "coordinates": [121.5538, 25.0851] }
    },
    {
      "type": "Feature",
      "properties": {
        "addr": "\u53f0\u5317\u5e02\u4e2d\u5c71\u5340\u65b0\u751f\u5317\u8def2\u6bb5108\u865f2\u6a13"
      },
      "geometry": { "type": "Point", "coordinates": [121.5272, 25.06] }
    },
    {
      "type": "Feature",
      "properties": {
        "addr": "\u53f0\u5317\u5e02\u4e2d\u5c71\u5340\u65b0\u751f\u5317\u8def2\u6bb57\u865f"
      },
      "geometry": { "type": "Point", "coordinates": [121.5279, 25.0529] }
    },
    {
      "type": "Feature",
      "properties": {
        "addr": "\u53f0\u5317\u5e02\u4e2d\u5c71\u5340\u6797\u68ee\u5317\u8def308\u865f"
      },
      "geometry": { "type": "Point", "coordinates": [121.5253, 25.0561] }
    },
    {
      "type": "Feature",
      "properties": {
        "addr": "\u53f0\u5317\u5e02\u4e2d\u5c71\u5340\u4e2d\u5c71\u5317\u8def3\u6bb525\u865fB1"
      },
      "geometry": { "type": "Point", "coordinates": [121.5225, 25.0652] }
    },
    {
      "type": "Feature",
      "properties": {
        "addr": "\u53f0\u5317\u5e02\u4e2d\u5c71\u5340\u5357\u4eac\u6771\u8def3\u6bb5166\u865f"
      },
      "geometry": { "type": "Point", "coordinates": [121.5413, 25.0517] }
    },
    {
      "type": "Feature",
      "properties": {
        "addr": "\u53f0\u5317\u5e02\u4e2d\u5c71\u5340\u656c\u696d\u4e09\u8def123\u865f"
      },
      "geometry": { "type": "Point", "coordinates": [121.5555, 25.0818] }
    },
    {
      "type": "Feature",
      "properties": {
        "addr": "\u53f0\u5317\u5e02\u4e2d\u5c71\u5340\u6797\u68ee\u5317\u8def349\u865f"
      },
      "geometry": { "type": "Point", "coordinates": [121.5257, 25.0569] }
    },
    {
      "type": "Feature",
      "properties": {
        "addr": "\u53f0\u5317\u5e02\u4e2d\u5c71\u5340\u4e2d\u5c71\u5317\u8def\u4e09\u6bb52-1\u865f"
      },
      "geometry": { "type": "Point", "coordinates": [121.5217, 25.0639] }
    },
    {
      "type": "Feature",
      "properties": {
        "addr": "\u53f0\u5317\u5e02\u4e2d\u5c71\u5340\u6c11\u751f\u6771\u8def3\u6bb56\u865f"
      },
      "geometry": { "type": "Point", "coordinates": [121.5383, 25.0577] }
    },
    {
      "type": "Feature",
      "properties": {
        "addr": "\u53f0\u5317\u5e02\u842c\u83ef\u5340\u6210\u90fd\u8def81\u865f3\u6a13"
      },
      "geometry": { "type": "Point", "coordinates": [121.5052, 25.0431] }
    },
    {
      "type": "Feature",
      "properties": {
        "addr": "\u53f0\u5317\u5e02\u4e2d\u5c71\u5340\u4e2d\u5c71\u5317\u8def1\u6bb5109\u865f"
      },
      "geometry": { "type": "Point", "coordinates": [121.5224, 25.0511] }
    },
    {
      "type": "Feature",
      "properties": {
        "addr": "\u53f0\u5317\u5e02\u4e2d\u5c71\u5340\u5e02\u6c11\u5927\u9053\u4e09\u6bb565\u865f"
      },
      "geometry": { "type": "Point", "coordinates": [121.5355, 25.0451] }
    },
    {
      "type": "Feature",
      "properties": {
        "addr": "\u53f0\u5317\u5e02\u4e2d\u5c71\u5340\u677e\u6c5f\u8def236\u865f"
      },
      "geometry": { "type": "Point", "coordinates": [121.5329, 25.059] }
    },
    {
      "type": "Feature",
      "properties": {
        "addr": "\u53f0\u5317\u5e02\u4e2d\u5c71\u5340\u5357\u4eac\u6771\u8def3\u6bb591\u865f3\u6a13"
      },
      "geometry": { "type": "Point", "coordinates": [121.539, 25.0522] }
    },
    {
      "type": "Feature",
      "properties": {
        "addr": "\u53f0\u5317\u5e02\u4e2d\u5c71\u5340\u6797\u68ee\u5317\u8def359\u865f"
      },
      "geometry": { "type": "Point", "coordinates": [121.5257, 25.0574] }
    },
    {
      "type": "Feature",
      "properties": {
        "addr": "\u53f0\u5317\u5e02\u4e2d\u5c71\u5340\u677e\u6c5f\u8def126"
      },
      "geometry": { "type": "Point", "coordinates": [121.5327, 25.0528] }
    },
    {
      "type": "Feature",
      "properties": {
        "addr": "\u53f0\u5317\u5e02\u4e2d\u5c71\u5340\u6c11\u6b0a\u6771\u8def2\u6bb541\u865f"
      },
      "geometry": { "type": "Point", "coordinates": [121.53, 25.0628] }
    },
    {
      "type": "Feature",
      "properties": {
        "addr": "\u53f0\u5317\u5e02\u4e2d\u5c71\u5340\u656c\u696d\u4e09\u8def20\u865f6~9\u6a13"
      },
      "geometry": { "type": "Point", "coordinates": [121.5564, 25.0779] }
    },
    {
      "type": "Feature",
      "properties": {
        "addr": "\u53f0\u5317\u5e02\u4e2d\u5c71\u5340\u5357\u4eac\u6771\u8def2\u6bb523\u865f"
      },
      "geometry": { "type": "Point", "coordinates": [121.5288, 25.0523] }
    },
    {
      "type": "Feature",
      "properties": {
        "addr": "\u53f0\u5317\u5e02\u4e2d\u5c71\u5340\u5efa\u570b\u5317\u8def3\u6bb542\u865f12\u6a13"
      },
      "geometry": { "type": "Point", "coordinates": [121.5366, 25.0643] }
    },
    {
      "type": "Feature",
      "properties": {
        "addr": "\u53f0\u5317\u5e02\u4e2d\u5c71\u5340\u6797\u68ee\u5317\u8def125\u865f"
      },
      "geometry": { "type": "Point", "coordinates": [121.5253, 25.0509] }
    },
    {
      "type": "Feature",
      "properties": {
        "addr": "\u53f0\u5317\u5e02\u4e2d\u5c71\u5340\u6c11\u751f\u897f\u8def16\u865f"
      },
      "geometry": { "type": "Point", "coordinates": [121.5222, 25.0577] }
    },
    {
      "type": "Feature",
      "properties": {
        "addr": "\u53f0\u5317\u5e02\u5927\u540c\u5340\u91cd\u6176\u5317\u8def3\u6bb5139\u865f"
      },
      "geometry": { "type": "Point", "coordinates": [121.5139, 25.0682] }
    },
    {
      "type": "Feature",
      "properties": {
        "addr": "\u53f0\u5317\u5e02\u4e2d\u5c71\u5340\u5317\u5b89\u8def780\u865f1"
      },
      "geometry": { "type": "Point", "coordinates": [121.5538, 25.0851] }
    },
    {
      "type": "Feature",
      "properties": {
        "addr": "\u53f0\u5317\u5e02\u4e2d\u5c71\u5340\u5357\u4eac\u6771\u8def2\u6bb596\u865fB1\u6a13"
      },
      "geometry": { "type": "Point", "coordinates": [121.5314, 25.0519] }
    },
    {
      "type": "Feature",
      "properties": {
        "addr": "\u53f0\u5317\u5e02\u5927\u540c\u5340\u8fea\u5316\u88572\u6bb599"
      },
      "geometry": { "type": "Point", "coordinates": [121.5096, 25.066] }
    },
    {
      "type": "Feature",
      "properties": {
        "addr": "\u53f0\u5317\u5e02\u5927\u540c\u5340\u5ef6\u5e73\u5317\u8def4\u6bb5259\u865f"
      },
      "geometry": { "type": "Point", "coordinates": [121.5121, 25.0764] }
    },
    {
      "type": "Feature",
      "properties": {
        "addr": "\u53f0\u5317\u5e02\u4e2d\u5c71\u5340\u6c11\u751f\u6771\u8def1\u6bb554\u865fB1\u6a13"
      },
      "geometry": { "type": "Point", "coordinates": [121.5249, 25.058] }
    },
    {
      "type": "Feature",
      "properties": {
        "addr": "\u53f0\u5317\u5e02\u5927\u540c\u5340\u5927\u9f8d\u8857136\u865f"
      },
      "geometry": { "type": "Point", "coordinates": [121.5158, 25.0674] }
    },
    {
      "type": "Feature",
      "properties": {
        "addr": "\u53f0\u5317\u5e02\u5927\u540c\u5340\u8fea\u5316\u88572\u6bb51"
      },
      "geometry": { "type": "Point", "coordinates": [121.5095, 25.0635] }
    },
    {
      "type": "Feature",
      "properties": {
        "addr": "\u53f0\u5317\u5e02\u5927\u540c\u5340\u6c11\u6b0a\u897f\u8def184\u5df733"
      },
      "geometry": { "type": "Point", "coordinates": [121.5146, 25.0616] }
    },
    {
      "type": "Feature",
      "properties": {
        "addr": "\u53f0\u5317\u5e02\u58eb\u6797\u5340\u5ef6\u5e73\u5317\u8def8\u6bb5244\u865f1"
      },
      "geometry": { "type": "Point", "coordinates": [121.4794, 25.106] }
    },
    {
      "type": "Feature",
      "properties": {
        "addr": "\u53f0\u5317\u5e02\u58eb\u6797\u5340\u5ef6\u5e73\u5317\u8def7\u6bb5106\u5df7114\u5f04\u53e3"
      },
      "geometry": { "type": "Point", "coordinates": [121.4956, 25.0995] }
    },
    {
      "type": "Feature",
      "properties": {
        "addr": "\u53f0\u5317\u5e02\u58eb\u6797\u5340\u4ef0\u5fb7\u5927\u90531\u6bb56\u5df72"
      },
      "geometry": { "type": "Point", "coordinates": [121.5377, 25.1006] }
    },
    {
      "type": "Feature",
      "properties": {
        "addr": "\u53f0\u5317\u5e02\u58eb\u6797\u5340\u5927\u6771\u8def"
      },
      "geometry": { "type": "Point", "coordinates": [121.5251, 25.0885] }
    },
    {
      "type": "Feature",
      "properties": {
        "addr": "\u53f0\u5317\u5e02\u58eb\u6797\u5340\u58eb\u6771\u8def2\u5df73\u865f"
      },
      "geometry": { "type": "Point", "coordinates": [121.5263, 25.1116] }
    },
    {
      "type": "Feature",
      "properties": {
        "addr": "\u53f0\u5317\u5e02\u58eb\u6797\u5340\u96e8\u8072\u8857105\u865f"
      },
      "geometry": { "type": "Point", "coordinates": [121.5316, 25.1052] }
    },
    {
      "type": "Feature",
      "properties": {
        "addr": "\u53f0\u5317\u5e02\u58eb\u6797\u5340\u5ef6\u5e73\u5317\u8def7\u6bb5251\u865f"
      },
      "geometry": { "type": "Point", "coordinates": [121.4875, 25.1027] }
    },
    {
      "type": "Feature",
      "properties": {
        "addr": "\u53f0\u5317\u5e02\u58eb\u6797\u5340\u4e2d\u5c71\u5317\u8def7\u6bb5190\u5df71\u865f"
      },
      "geometry": { "type": "Point", "coordinates": [121.5332, 25.1251] }
    },
    {
      "type": "Feature",
      "properties": {
        "addr": "\u53f0\u5317\u5e02\u58eb\u6797\u5340\u838a\u9802\u8def2\u865f"
      },
      "geometry": { "type": "Point", "coordinates": [121.5495, 25.1108] }
    },
    {
      "type": "Feature",
      "properties": {
        "addr": "\u53f0\u5317\u5e02\u5317\u6295\u5340\u95dc\u6e21\u8def60\u865f"
      },
      "geometry": { "type": "Point", "coordinates": [121.4688, 25.1195] }
    },
    {
      "type": "Feature",
      "properties": {
        "addr": "\u53f0\u5317\u5e02\u58eb\u6797\u5340\u83c1\u5c71\u8def99\u5df716\u865f"
      },
      "geometry": { "type": "Point", "coordinates": [121.5541, 25.1437] }
    },
    {
      "type": "Feature",
      "properties": {
        "addr": "\u53f0\u5317\u5e02\u58eb\u6797\u5340\u5ef6\u5e73\u5317\u8def7\u6bb5101\u5df72\u865f"
      },
      "geometry": { "type": "Point", "coordinates": [121.4949, 25.0968] }
    },
    {
      "type": "Feature",
      "properties": {
        "addr": "\u53f0\u5317\u5e02\u58eb\u6797\u5340\u4ef0\u5fb7\u5927\u90532\u6bb52\u5df750\u865f"
      },
      "geometry": { "type": "Point", "coordinates": [121.543, 25.102] }
    },
    {
      "type": "Feature",
      "properties": {
        "addr": "\u53f0\u5317\u5e02\u58eb\u6797\u5340\u5929\u6bcd\u6771\u8def68\u865f"
      },
      "geometry": { "type": "Point", "coordinates": [121.534, 25.1179] }
    },
    {
      "type": "Feature",
      "properties": {
        "addr": "\u53f0\u5317\u5e02\u58eb\u6797\u5340\u5efa\u696d\u8def22\u865f"
      },
      "geometry": { "type": "Point", "coordinates": [121.5485, 25.1359] }
    },
    {
      "type": "Feature",
      "properties": {
        "addr": "\u53f0\u5317\u5e02\u5317\u6295\u5340\u77f3\u4ed9\u8def1"
      },
      "geometry": { "type": "Point", "coordinates": [121.4894, 25.1415] }
    },
    {
      "type": "Feature",
      "properties": {
        "addr": "\u53f0\u5317\u5e02\u4e2d\u5c71\u5340\u6c11\u751f\u6771\u8def2\u6bb5119\u865f"
      },
      "geometry": { "type": "Point", "coordinates": [121.5318, 25.0581] }
    },
    {
      "type": "Feature",
      "properties": {
        "addr": "\u53f0\u5317\u5e02\u58eb\u6797\u5340\u4ef0\u5fb7\u5927\u9053\u4e09\u6bb5106\u5df720\u865f"
      },
      "geometry": { "type": "Point", "coordinates": [121.553, 25.1233] }
    },
    {
      "type": "Feature",
      "properties": {
        "addr": "\u53f0\u5317\u5e02\u58eb\u6797\u5340\u627f\u5fb7\u8def4\u6bb540\u5df7"
      },
      "geometry": { "type": "Point", "coordinates": [121.5209, 25.0814] }
    },
    {
      "type": "Feature",
      "properties": {
        "addr": "\u53f0\u5317\u5e02\u677e\u5c71\u5340\u65b0\u4e2d\u88579-1\u865f1\u6a13"
      },
      "geometry": { "type": "Point", "coordinates": [121.5605, 25.0576] }
    },
    {
      "type": "Feature",
      "properties": {
        "addr": "\u53f0\u5317\u5e02\u5317\u6295\u5340\u6eab\u6cc9\u8def139\u865f"
      },
      "geometry": { "type": "Point", "coordinates": [121.5121, 25.14] }
    },
    {
      "type": "Feature",
      "properties": {
        "addr": "\u53f0\u5317\u5e02\u58eb\u6797\u5340\u83c1\u5c71\u8def90\u865f-100\u865f"
      },
      "geometry": { "type": "Point", "coordinates": [121.551, 25.1395] }
    },
    {
      "type": "Feature",
      "properties": {
        "addr": "\u53f0\u5317\u5e02\u4e2d\u5c71\u5340\u5929\u7965\u8def213\u865f13\u6a13"
      },
      "geometry": { "type": "Point", "coordinates": [121.521, 25.0623] }
    },
    {
      "type": "Feature",
      "properties": {
        "addr": "\u53f0\u5317\u5e02\u842c\u83ef\u5340\u548c\u5e73\u897f\u8def\u4e09\u6bb5187\u865f2\u6a13"
      },
      "geometry": { "type": "Point", "coordinates": [121.4977, 25.0355] }
    },
    {
      "type": "Feature",
      "properties": {
        "addr": "\u53f0\u5317\u5e02\u58eb\u6797\u5340\u4e2d\u5c71\u5317\u8def6\u6bb5186\u5df72\u865f"
      },
      "geometry": { "type": "Point", "coordinates": [121.5255, 25.1076] }
    },